[{"latitude": 6.095802, "longitude": 46.6375, "name": "Adado Airport", "geo": {"__type": "GeoPoint", "latitude": 6.095802, "longitude": 46.6375}}, {"latitude": 11.4023, "longitude": 26.1186, "name": "El Daein Airport", "geo": {"__type": "GeoPoint", "latitude": 11.4023, "longitude": 26.1186}}, {"latitude": 10.0536111111, "longitude": 32.9594444444, "name": "Adareil Airport", "geo": {"__type": "GeoPoint", "latitude": 10.0536111111, "longitude": 32.9594444444}}, {"latitude": -3.471371, "longitude": 30.231485, "name": "Ruyigi Airport", "geo": {"__type": "GeoPoint", "latitude": -3.471371, "longitude": 30.231485}}, {"latitude": -2.879447, "longitude": 29.832178, "name": "Mwumba Airport", "geo": {"__type": "GeoPoint", "latitude": -2.879447, "longitude": 29.832178}}, {"latitude": 11.1994444444, "longitude": 28.5230555556, "name": "Baleela Airport", "geo": {"__type": "GeoPoint", "latitude": 11.1994444444, "longitude": 28.5230555556}}, {"latitude": -3.983363, "longitude": 39.730982, "name": "Bamburi Airport", "geo": {"__type": "GeoPoint", "latitude": -3.983363, "longitude": 39.730982}}, {"latitude": 11.30608, "longitude": 42.91968, "name": "Holhol Airport", "geo": {"__type": "GeoPoint", "latitude": 11.30608, "longitude": 42.91968}}, {"latitude": 11.54796, "longitude": 43.12446, "name": "Djibouti Hassan Gouled International Airport", "geo": {"__type": "GeoPoint", "latitude": 11.54796, "longitude": 43.12446}}, {"latitude": 15.68151, "longitude": 40.104431, "name": "Dahlak South Airfield", "geo": {"__type": "GeoPoint", "latitude": 15.68151, "longitude": 40.104431}}, {"latitude": 15.72753, "longitude": 40.07532, "name": "Dahlak Central Airfield", "geo": {"__type": "GeoPoint", "latitude": 15.72753, "longitude": 40.07532}}, {"latitude": 15.75794, "longitude": 39.97046, "name": "Dahlak West Airfield", "geo": {"__type": "GeoPoint", "latitude": 15.75794, "longitude": 39.97046}}, {"latitude": 14.32168, "longitude": 36.63028, "name": "Omhajer Airport", "geo": {"__type": "GeoPoint", "latitude": 14.32168, "longitude": 36.63028}}, {"latitude": 9.3615, "longitude": 42.7887, "name": "Old Jijiga Airport", "geo": {"__type": "GeoPoint", "latitude": 9.3615, "longitude": 42.7887}}, {"latitude": 5.296, "longitude": 35.8682, "name": "Kibbish Wells Airport", "geo": {"__type": "GeoPoint", "latitude": 5.296, "longitude": 35.8682}}, {"latitude": 5.337166, "longitude": 37.022991, "name": "Ganada Airport", "geo": {"__type": "GeoPoint", "latitude": 5.337166, "longitude": 37.022991}}, {"latitude": 7.066667, "longitude": 38.490278, "name": "(Old) Awasa Airport", "geo": {"__type": "GeoPoint", "latitude": 7.066667, "longitude": 38.490278}}, {"latitude": 8.999475, "longitude": 38.742503, "name": "African Union Heliport", "geo": {"__type": "GeoPoint", "latitude": 8.999475, "longitude": 38.742503}}, {"latitude": 6.9844398498499904, "longitude": 46.4213981628, "name": "Geladi Airport", "geo": {"__type": "GeoPoint", "latitude": 6.9844398498499904, "longitude": 46.4213981628}}, {"latitude": 14.0781002044677, "longitude": 38.2724990844726, "name": "Shire Inda Selassie Airport", "geo": {"__type": "GeoPoint", "latitude": 14.0781002044677, "longitude": 38.2724990844726}}, {"latitude": 3.32294, "longitude": 42.21309, "name": "Garbaharey Airport", "geo": {"__type": "GeoPoint", "latitude": 3.32294, "longitude": 42.21309}}, {"latitude": -2.160833, "longitude": 34.225556, "name": "Kirawira B Aerodrome", "geo": {"__type": "GeoPoint", "latitude": -2.160833, "longitude": 34.225556}}, {"latitude": 8.97789, "longitude": 38.799301, "name": "Addis Ababa Bole International Airport", "geo": {"__type": "GeoPoint", "latitude": 8.97789, "longitude": 38.799301}}, {"latitude": 7.05000019073486, "longitude": 39.4000015258789, "name": "Adaba Airport", "geo": {"__type": "GeoPoint", "latitude": 7.05000019073486, "longitude": 39.4000015258789}}, {"latitude": 9.003685, "longitude": 38.725498, "name": "Lideta Army Airport", "geo": {"__type": "GeoPoint", "latitude": 9.003685, "longitude": 38.725498}}, {"latitude": 6.03939008712768, "longitude": 37.5904998779296, "name": "Arba Minch Airport", "geo": {"__type": "GeoPoint", "latitude": 6.03939008712768, "longitude": 37.5904998779296}}, {"latitude": 14.1468000411987, "longitude": 38.7728004455566, "name": "Axum Airport", "geo": {"__type": "GeoPoint", "latitude": 14.1468000411987, "longitude": 38.7728004455566}}, {"latitude": 5.78287, "longitude": 36.562, "name": "Baco Airport", "geo": {"__type": "GeoPoint", "latitude": 5.78287, "longitude": 36.562}}, {"latitude": 11.6080999374389, "longitude": 37.321601867675696, "name": "Bahir Dar Airport", "geo": {"__type": "GeoPoint", "latitude": 11.6080999374389, "longitude": 37.321601867675696}}, {"latitude": 9.38639, "longitude": 34.5219, "name": "Beica Airport", "geo": {"__type": "GeoPoint", "latitude": 9.38639, "longitude": 34.5219}}, {"latitude": 8.234, "longitude": 43.5673, "name": "Degah Bur Airport", "geo": {"__type": "GeoPoint", "latitude": 8.234, "longitude": 43.5673}}, {"latitude": 11.0825004577636, "longitude": 39.711399078369105, "name": "Combolcha Airport", "geo": {"__type": "GeoPoint", "latitude": 11.0825004577636, "longitude": 39.711399078369105}}, {"latitude": 8.553999900817871, "longitude": 34.8580017089843, "name": "Dembidollo Airport", "geo": {"__type": "GeoPoint", "latitude": 8.553999900817871, "longitude": 34.8580017089843}}, {"latitude": 10.3500003814697, "longitude": 37.716999053955, "name": "Debra Marcos Airport", "geo": {"__type": "GeoPoint", "latitude": 10.3500003814697, "longitude": 37.716999053955}}, {"latitude": 7.02055978775024, "longitude": 39.051101684570305, "name": "Dodola Airport", "geo": {"__type": "GeoPoint", "latitude": 7.02055978775024, "longitude": 39.051101684570305}}, {"latitude": 9.62469959259033, "longitude": 41.8541984558105, "name": "Aba Tenna Dejazmach Yilma International Airport", "geo": {"__type": "GeoPoint", "latitude": 9.62469959259033, "longitude": 41.8541984558105}}, {"latitude": 11.9670000076293, "longitude": 38.0, "name": "Debre Tabor Airport", "geo": {"__type": "GeoPoint", "latitude": 11.9670000076293, "longitude": 38.0}}, {"latitude": 9.58300018310546, "longitude": 37.349998474121, "name": "Fincha Airport", "geo": {"__type": "GeoPoint", "latitude": 9.58300018310546, "longitude": 37.349998474121}}, {"latitude": 7.1160634, "longitude": 40.0463033, "name": "Robe Airport", "geo": {"__type": "GeoPoint", "latitude": 7.1160634, "longitude": 40.0463033}}, {"latitude": 7.15000009537, "longitude": 40.716999054, "name": "Ghinnir Airport", "geo": {"__type": "GeoPoint", "latitude": 7.15000009537, "longitude": 40.716999054}}, {"latitude": 8.12876033782959, "longitude": 34.5630989074707, "name": "Gambella Airport", "geo": {"__type": "GeoPoint", "latitude": 8.12876033782959, "longitude": 34.5630989074707}}, {"latitude": 12.5199003219604, "longitude": 37.4339981079101, "name": "Gonder Airport", "geo": {"__type": "GeoPoint", "latitude": 12.5199003219604, "longitude": 37.4339981079101}}, {"latitude": 5.93513011932, "longitude": 43.5786018372, "name": "Gode Airport", "geo": {"__type": "GeoPoint", "latitude": 5.93513011932, "longitude": 43.5786018372}}, {"latitude": 8.1614, "longitude": 35.5529, "name": "Gore Airport", "geo": {"__type": "GeoPoint", "latitude": 8.1614, "longitude": 35.5529}}, {"latitude": 8.7163, "longitude": 39.0059, "name": "Harar Meda Airport", "geo": {"__type": "GeoPoint", "latitude": 8.7163, "longitude": 39.0059}}, {"latitude": 14.283973, "longitude": 36.581369, "name": "Humera Airport", "geo": {"__type": "GeoPoint", "latitude": 14.283973, "longitude": 36.581369}}, {"latitude": 9.3325, "longitude": 42.9121, "name": "Wilwal International Airport", "geo": {"__type": "GeoPoint", "latitude": 9.3325, "longitude": 42.9121}}, {"latitude": 7.66609001159668, "longitude": 36.8166007995605, "name": "Jimma Airport", "geo": {"__type": "GeoPoint", "latitude": 7.66609001159668, "longitude": 36.8166007995605}}, {"latitude": 6.732577, "longitude": 44.241339, "name": "Kebri Dahar Airport", "geo": {"__type": "GeoPoint", "latitude": 6.732577, "longitude": 44.241339}}, {"latitude": 5.65700006484985, "longitude": 44.349998474121, "name": "Kelafo East Airport", "geo": {"__type": "GeoPoint", "latitude": 5.65700006484985, "longitude": 44.349998474121}}, {"latitude": 7.095, "longitude": 38.398333, "name": "Awasa Airport", "geo": {"__type": "GeoPoint", "latitude": 7.095, "longitude": 38.398333}}, {"latitude": 11.9750003814697, "longitude": 38.97999954223631, "name": "Lalibella Airport", "geo": {"__type": "GeoPoint", "latitude": 11.9750003814697, "longitude": 38.97999954223631}}, {"latitude": 10.7254, "longitude": 38.7415, "name": "Mekane Selam Airport", "geo": {"__type": "GeoPoint", "latitude": 10.7254, "longitude": 38.7415}}, {"latitude": 5.83300018310546, "longitude": 35.5330009460449, "name": "Tume Airport", "geo": {"__type": "GeoPoint", "latitude": 5.83300018310546, "longitude": 35.5330009460449}}, {"latitude": 13.4673995971679, "longitude": 39.533500671386705, "name": "Mekele Airport", "geo": {"__type": "GeoPoint", "latitude": 13.4673995971679, "longitude": 39.533500671386705}}, {"latitude": 6.408060073852529, "longitude": 39.723899841308494, "name": "Masslo Airport", "geo": {"__type": "GeoPoint", "latitude": 6.408060073852529, "longitude": 39.723899841308494}}, {"latitude": 12.9329996108999, "longitude": 36.1669998169, "name": "Metema Airport", "geo": {"__type": "GeoPoint", "latitude": 12.9329996108999, "longitude": 36.1669998169}}, {"latitude": 9.767, "longitude": 35.099998, "name": "Mendi Airport", "geo": {"__type": "GeoPoint", "latitude": 9.767, "longitude": 35.099998}}, {"latitude": 5.8646, "longitude": 35.7485, "name": "Mui River Airport", "geo": {"__type": "GeoPoint", "latitude": 5.8646, "longitude": 35.7485}}, {"latitude": 6.9571, "longitude": 35.5547, "name": "Mizan Teferi Airport", "geo": {"__type": "GeoPoint", "latitude": 6.9571, "longitude": 35.5547}}, {"latitude": 5.2897, "longitude": 39.7023, "name": "Negele Airport", "geo": {"__type": "GeoPoint", "latitude": 5.2897, "longitude": 39.7023}}, {"latitude": 9.55, "longitude": 35.466995, "name": "Nejjo Airport", "geo": {"__type": "GeoPoint", "latitude": 9.55, "longitude": 35.466995}}, {"latitude": 9.050000190734862, "longitude": 36.599998474121, "name": "Nekemte Airport", "geo": {"__type": "GeoPoint", "latitude": 9.050000190734862, "longitude": 36.599998474121}}, {"latitude": 11.3126, "longitude": 36.4164, "name": "Beles Airport", "geo": {"__type": "GeoPoint", "latitude": 11.3126, "longitude": 36.4164}}, {"latitude": 6.81699991226196, "longitude": 37.75, "name": "Soddu Airport", "geo": {"__type": "GeoPoint", "latitude": 6.81699991226196, "longitude": 37.75}}, {"latitude": 7.150000095367431, "longitude": 40.5670013427734, "name": "Sheik Hussein Airport", "geo": {"__type": "GeoPoint", "latitude": 7.150000095367431, "longitude": 40.5670013427734}}, {"latitude": 5.6923, "longitude": 38.9764, "name": "Shakiso Airport", "geo": {"__type": "GeoPoint", "latitude": 5.6923, "longitude": 38.9764}}, {"latitude": 11.7875, "longitude": 40.9915, "name": "Semera Airport", "geo": {"__type": "GeoPoint", "latitude": 11.7875, "longitude": 40.9915}}, {"latitude": 10.0185003280639, "longitude": 34.5862998962402, "name": "Asosa Airport", "geo": {"__type": "GeoPoint", "latitude": 10.0185003280639, "longitude": 34.5862998962402}}, {"latitude": 7.2024, "longitude": 35.415, "name": "Tippi Airport", "geo": {"__type": "GeoPoint", "latitude": 7.2024, "longitude": 35.415}}, {"latitude": 7.1669998168945295, "longitude": 37.166999816894496, "name": "Waca Airport", "geo": {"__type": "GeoPoint", "latitude": 7.1669998168945295, "longitude": 37.166999816894496}}, {"latitude": 6.9724, "longitude": 45.3334, "name": "Warder Airport", "geo": {"__type": "GeoPoint", "latitude": 6.9724, "longitude": 45.3334}}, {"latitude": -3.32402, "longitude": 29.318501, "name": "Bujumbura Melchior Ndadaye International Airport", "geo": {"__type": "GeoPoint", "latitude": -3.32402, "longitude": 29.318501}}, {"latitude": -3.417209, "longitude": 29.911308, "name": "Gitega Airport", "geo": {"__type": "GeoPoint", "latitude": -3.417209, "longitude": 29.911308}}, {"latitude": -4.0342, "longitude": 30.1318, "name": "Gihohi Airport", "geo": {"__type": "GeoPoint", "latitude": -4.0342, "longitude": 30.1318}}, {"latitude": -4.339434, "longitude": 29.598245, "name": "Nyanza-Lac Airport", "geo": {"__type": "GeoPoint", "latitude": -4.339434, "longitude": 29.598245}}, {"latitude": -2.544772, "longitude": 30.094575, "name": "Kirundo Airport", "geo": {"__type": "GeoPoint", "latitude": -2.544772, "longitude": 30.094575}}, {"latitude": 11.9582, "longitude": 50.748, "name": "Alula Airport", "geo": {"__type": "GeoPoint", "latitude": 11.9582, "longitude": 50.748}}, {"latitude": 3.10192, "longitude": 43.627137, "name": "Baidoa Airport", "geo": {"__type": "GeoPoint", "latitude": 3.10192, "longitude": 43.627137}}, {"latitude": 11.494, "longitude": 49.9085, "name": "Candala Airport", "geo": {"__type": "GeoPoint", "latitude": 11.494, "longitude": 49.9085}}, {"latitude": 2.330195, "longitude": 42.311802, "name": "Bardera Airport", "geo": {"__type": "GeoPoint", "latitude": 2.330195, "longitude": 42.311802}}, {"latitude": 8.104, "longitude": 49.82, "name": "Eil Airport", "geo": {"__type": "GeoPoint", "latitude": 8.104, "longitude": 49.82}}, {"latitude": 11.275235, "longitude": 49.139231, "name": "Bosaso / Bender Qassim International Airport", "geo": {"__type": "GeoPoint", "latitude": 11.275235, "longitude": 49.139231}}, {"latitude": 9.517000198364249, "longitude": 49.0830001831054, "name": "Gardo Airport", "geo": {"__type": "GeoPoint", "latitude": 9.517000198364249, "longitude": 49.0830001831054}}, {"latitude": 9.513207, "longitude": 44.082389, "name": "Egal International Airport", "geo": {"__type": "GeoPoint", "latitude": 9.513207, "longitude": 44.082389}}, {"latitude": 10.385035, "longitude": 44.936723, "name": "Berbera Airport", "geo": {"__type": "GeoPoint", "latitude": 10.385035, "longitude": 44.936723}}, {"latitude": 3.8124, "longitude": 42.5459, "name": "Lugh Ganane Airport", "geo": {"__type": "GeoPoint", "latitude": 3.8124, "longitude": 42.5459}}, {"latitude": -0.377353, "longitude": 42.459202, "name": "Kismayo Airport", "geo": {"__type": "GeoPoint", "latitude": -0.377353, "longitude": 42.459202}}, {"latitude": 2.01444005966186, "longitude": 45.3046989440918, "name": "Aden Adde International Airport", "geo": {"__type": "GeoPoint", "latitude": 2.01444005966186, "longitude": 45.3046989440918}}, {"latitude": 4.766976, "longitude": 45.2388, "name": "Beledweyne Airport", "geo": {"__type": "GeoPoint", "latitude": 4.766976, "longitude": 45.2388}}, {"latitude": 5.358003, "longitude": 48.515281, "name": "Hobyo Airport", "geo": {"__type": "GeoPoint", "latitude": 5.358003, "longitude": 48.515281}}, {"latitude": 6.78082990646, "longitude": 47.45470047, "name": "Galcaio Airport", "geo": {"__type": "GeoPoint", "latitude": 6.78082990646, "longitude": 47.45470047}}, {"latitude": 10.3, "longitude": 50.233002, "name": "Iskushuban Airport", "geo": {"__type": "GeoPoint", "latitude": 10.3, "longitude": 50.233002}}, {"latitude": 10.642050549, "longitude": 47.3879814148, "name": "Erigavo Airport", "geo": {"__type": "GeoPoint", "latitude": 10.642050549, "longitude": 47.3879814148}}, {"latitude": 9.5275, "longitude": 45.5549, "name": "Burao Airport", "geo": {"__type": "GeoPoint", "latitude": 9.5275, "longitude": 45.5549}}, {"latitude": 8.457942, "longitude": 48.567407, "name": "Garowe Airport", "geo": {"__type": "GeoPoint", "latitude": 8.457942, "longitude": 48.567407}}, {"latitude": 12.188882, "longitude": 42.637494, "name": "Assa-Gueyla Airport", "geo": {"__type": "GeoPoint", "latitude": 12.188882, "longitude": 42.637494}}, {"latitude": 11.5473003387451, "longitude": 43.159500122070305, "name": "Djibouti-Ambouli Airport", "geo": {"__type": "GeoPoint", "latitude": 11.5473003387451, "longitude": 43.159500122070305}}, {"latitude": 11.146889, "longitude": 42.72, "name": "Ali-Sabieh Airport", "geo": {"__type": "GeoPoint", "latitude": 11.146889, "longitude": 42.72}}, {"latitude": 11.5167999267578, "longitude": 43.06140136718751, "name": "Chabelley Airport", "geo": {"__type": "GeoPoint", "latitude": 11.5167999267578, "longitude": 43.06140136718751}}, {"latitude": 11.097958, "longitude": 42.350556, "name": "Dikhil Airport", "geo": {"__type": "GeoPoint", "latitude": 11.097958, "longitude": 42.350556}}, {"latitude": 12.4449, "longitude": 43.292575, "name": "Herkale Airport", "geo": {"__type": "GeoPoint", "latitude": 12.4449, "longitude": 43.292575}}, {"latitude": 11.729912, "longitude": 43.208863, "name": "Moucha Airport", "geo": {"__type": "GeoPoint", "latitude": 11.729912, "longitude": 43.208863}}, {"latitude": 11.9670000076293, "longitude": 43.2669982910156, "name": "Obock Airport", "geo": {"__type": "GeoPoint", "latitude": 11.9670000076293, "longitude": 43.2669982910156}}, {"latitude": 11.787037, "longitude": 42.917376, "name": "Tadjoura Airport", "geo": {"__type": "GeoPoint", "latitude": 11.787037, "longitude": 42.917376}}, {"latitude": 15.53783, "longitude": 37.855481, "name": "Agordat Airport", "geo": {"__type": "GeoPoint", "latitude": 15.53783, "longitude": 37.855481}}, {"latitude": 15.2918996810913, "longitude": 38.9107017517089, "name": "Asmara International Airport", "geo": {"__type": "GeoPoint", "latitude": 15.2918996810913, "longitude": 38.9107017517089}}, {"latitude": 15.122394, "longitude": 37.614335, "name": "Barentu Airport", "geo": {"__type": "GeoPoint", "latitude": 15.122394, "longitude": 37.614335}}, {"latitude": 15.6700000762939, "longitude": 39.3700981140136, "name": "Massawa International Airport", "geo": {"__type": "GeoPoint", "latitude": 15.6700000762939, "longitude": 39.3700981140136}}, {"latitude": 13.0718002319335, "longitude": 42.6450004577636, "name": "Assab International Airport", "geo": {"__type": "GeoPoint", "latitude": 13.0718002319335, "longitude": 42.6450004577636}}, {"latitude": 15.104322, "longitude": 36.681711, "name": "Tessenei Airport", "geo": {"__type": "GeoPoint", "latitude": 15.104322, "longitude": 36.681711}}, {"latitude": 6.077545, "longitude": 44.763736, "name": "Shilavo Airport", "geo": {"__type": "GeoPoint", "latitude": 6.077545, "longitude": 44.763736}}, {"latitude": 4.87201, "longitude": 31.601101, "name": "Juba International Airport", "geo": {"__type": "GeoPoint", "latitude": 4.87201, "longitude": 31.601101}}, {"latitude": -2.64505004882812, "longitude": 37.253101348876896, "name": "Amboseli Airport", "geo": {"__type": "GeoPoint", "latitude": -2.64505004882812, "longitude": 37.253101348876896}}, {"latitude": 0.457085013389587, "longitude": 34.1302795410156, "name": "Busia Airport", "geo": {"__type": "GeoPoint", "latitude": 0.457085013389587, "longitude": 34.1302795410156}}, {"latitude": -1.10000002384185, "longitude": 39.9500007629394, "name": "Bura East Airport", "geo": {"__type": "GeoPoint", "latitude": -1.10000002384185, "longitude": 39.9500007629394}}, {"latitude": 0.576207995414733, "longitude": 34.5534515380859, "name": "Bungoma Airport", "geo": {"__type": "GeoPoint", "latitude": 0.576207995414733, "longitude": 34.5534515380859}}, {"latitude": 0.536926, "longitude": 35.280518, "name": "Eldoret Boma Airport", "geo": {"__type": "GeoPoint", "latitude": 0.536926, "longitude": 35.280518}}, {"latitude": 0.404457986354827, "longitude": 35.238899230957, "name": "Eldoret International Airport", "geo": {"__type": "GeoPoint", "latitude": 0.404457986354827, "longitude": 35.238899230957}}, {"latitude": -0.57327, "longitude": 37.49726, "name": "Embu Airport", "geo": {"__type": "GeoPoint", "latitude": -0.57327, "longitude": 37.49726}}, {"latitude": 3.21667003631591, "longitude": 35.9667015075683, "name": "Eliye Springs Airport", "geo": {"__type": "GeoPoint", "latitude": 3.21667003631591, "longitude": 35.9667015075683}}, {"latitude": 2.732842, "longitude": 40.927505, "name": "El Wak Airport", "geo": {"__type": "GeoPoint", "latitude": 2.732842, "longitude": 40.927505}}, {"latitude": 3.49161, "longitude": 35.836777, "name": "Kalokol Airport", "geo": {"__type": "GeoPoint", "latitude": 3.49161, "longitude": 35.836777}}, {"latitude": -0.463508009910583, "longitude": 39.6483001708984, "name": "Garissa Airport", "geo": {"__type": "GeoPoint", "latitude": -0.463508009910583, "longitude": 39.6483001708984}}, {"latitude": 0.533333, "longitude": 38.516667, "name": "Garba Tula Airport", "geo": {"__type": "GeoPoint", "latitude": 0.533333, "longitude": 38.516667}}, {"latitude": -0.600000023841857, "longitude": 34.466999053955, "name": "Homa Bay Airport", "geo": {"__type": "GeoPoint", "latitude": -0.600000023841857, "longitude": 34.466999053955}}, {"latitude": -1.5219999551773, "longitude": 40.0040016174316, "name": "Hola Airport", "geo": {"__type": "GeoPoint", "latitude": -1.5219999551773, "longitude": 40.0040016174316}}, {"latitude": 0.338170945644378, "longitude": 37.5916938781738, "name": "Isiolo Airport", "geo": {"__type": "GeoPoint", "latitude": 0.338170945644378, "longitude": 37.5916938781738}}, {"latitude": -1.31923997402, "longitude": 36.9277992249, "name": "Jomo Kenyatta International Airport", "geo": {"__type": "GeoPoint", "latitude": -1.31923997402, "longitude": 36.9277992249}}, {"latitude": -0.633000016212463, "longitude": 37.882999420166, "name": "Kiambere Airport", "geo": {"__type": "GeoPoint", "latitude": -0.633000016212463, "longitude": 37.882999420166}}, {"latitude": -1.586345, "longitude": 35.257455, "name": "Keekorok Airport", "geo": {"__type": "GeoPoint", "latitude": -1.586345, "longitude": 35.257455}}, {"latitude": 0.271342009306, "longitude": 34.7873001099, "name": "Kakamega Airport", "geo": {"__type": "GeoPoint", "latitude": 0.271342009306, "longitude": 34.7873001099}}, {"latitude": -0.0861390009522438, "longitude": 34.7289009094238, "name": "Kisumu Airport", "geo": {"__type": "GeoPoint", "latitude": -0.0861390009522438, "longitude": 34.7289009094238}}, {"latitude": -2.91060996055603, "longitude": 38.065200805664, "name": "Kilaguni Airport", "geo": {"__type": "GeoPoint", "latitude": -2.91060996055603, "longitude": 38.065200805664}}, {"latitude": -0.3899, "longitude": 35.242093, "name": "Kericho Airport", "geo": {"__type": "GeoPoint", "latitude": -0.3899, "longitude": 35.242093}}, {"latitude": -0.666999995708465, "longitude": 34.7000007629394, "name": "Kisii Airport", "geo": {"__type": "GeoPoint", "latitude": -0.666999995708465, "longitude": 34.7000007629394}}, {"latitude": 0.971988976001739, "longitude": 34.9585990905761, "name": "Kitale Airport", "geo": {"__type": "GeoPoint", "latitude": 0.971988976001739, "longitude": 34.9585990905761}}, {"latitude": -1.37278997898101, "longitude": 37.978099822998, "name": "Kitui Airport", "geo": {"__type": "GeoPoint", "latitude": -1.37278997898101, "longitude": 37.978099822998}}, {"latitude": 4.319205, "longitude": 35.688641, "name": "Lokitaung Airport", "geo": {"__type": "GeoPoint", "latitude": 4.319205, "longitude": 35.688641}}, {"latitude": 4.20412015914917, "longitude": 34.3482017517089, "name": "Lokichoggio Airport", "geo": {"__type": "GeoPoint", "latitude": 4.20412015914917, "longitude": 34.3482017517089}}, {"latitude": 3.12196993827819, "longitude": 35.6086997985839, "name": "Lodwar Airport", "geo": {"__type": "GeoPoint", "latitude": 3.12196993827819, "longitude": 35.6086997985839}}, {"latitude": -2.90988492965698, "longitude": 37.5261077880859, "name": "Loitokitok Airport", "geo": {"__type": "GeoPoint", "latitude": -2.90988492965698, "longitude": 37.5261077880859}}, {"latitude": -2.25241994857788, "longitude": 40.913101196289, "name": "Manda Airstrip", "geo": {"__type": "GeoPoint", "latitude": -2.25241994857788, "longitude": 40.913101196289}}, {"latitude": 2.75, "longitude": 36.716999053955, "name": "Loyengalani Airport", "geo": {"__type": "GeoPoint", "latitude": 2.75, "longitude": 36.716999053955}}, {"latitude": 3.9330000877380304, "longitude": 41.849998474121, "name": "Mandera Airport", "geo": {"__type": "GeoPoint", "latitude": 3.9330000877380304, "longitude": 41.849998474121}}, {"latitude": 2.344254, "longitude": 37.999996, "name": "Marsabit Airport", "geo": {"__type": "GeoPoint", "latitude": 2.344254, "longitude": 37.999996}}, {"latitude": -1.94805705547332, "longitude": 36.283332824707, "name": "Magadi Airport", "geo": {"__type": "GeoPoint", "latitude": -1.94805705547332, "longitude": 36.283332824707}}, {"latitude": 0.949999988079071, "longitude": 36.7999992370605, "name": "Maralal (Kisima) Airport", "geo": {"__type": "GeoPoint", "latitude": 0.949999988079071, "longitude": 36.7999992370605}}, {"latitude": 0.165083, "longitude": 38.195141, "name": "Mulika Lodge Airport", "geo": {"__type": "GeoPoint", "latitude": 0.165083, "longitude": 38.195141}}, {"latitude": -3.22931003570556, "longitude": 40.101699829101506, "name": "Malindi Airport", "geo": {"__type": "GeoPoint", "latitude": -3.22931003570556, "longitude": 40.101699829101506}}, {"latitude": -1.11699998378753, "longitude": 34.4830017089843, "name": "Migori Airport", "geo": {"__type": "GeoPoint", "latitude": -1.11699998378753, "longitude": 34.4830017089843}}, {"latitude": -4.03483, "longitude": 39.5942, "name": "Moi International Airport", "geo": {"__type": "GeoPoint", "latitude": -4.03483, "longitude": 39.5942}}, {"latitude": -3.73568511009216, "longitude": 39.033329010009695, "name": "Mackinnon Road Airport", "geo": {"__type": "GeoPoint", "latitude": -3.73568511009216, "longitude": 39.033329010009695}}, {"latitude": -1.406111, "longitude": 35.008057, "name": "Mara Serena Lodge Airstrip", "geo": {"__type": "GeoPoint", "latitude": -1.406111, "longitude": 35.008057}}, {"latitude": -2.7170820236206, "longitude": 38.197566986083906, "name": "Mtito Andei Airport", "geo": {"__type": "GeoPoint", "latitude": -2.7170820236206, "longitude": 38.197566986083906}}, {"latitude": -2.28971290588378, "longitude": 37.828620910644496, "name": "Makindu Airport", "geo": {"__type": "GeoPoint", "latitude": -2.28971290588378, "longitude": 37.828620910644496}}, {"latitude": 3.46972, "longitude": 39.101398, "name": "Moyale Airport", "geo": {"__type": "GeoPoint", "latitude": 3.46972, "longitude": 39.101398}}, {"latitude": -0.364414006471633, "longitude": 36.9784851074218, "name": "Nyeri Airport", "geo": {"__type": "GeoPoint", "latitude": -0.364414006471633, "longitude": 36.9784851074218}}, {"latitude": -0.298067, "longitude": 36.159302, "name": "Nakuru Airport", "geo": {"__type": "GeoPoint", "latitude": -0.298067, "longitude": 36.159302}}, {"latitude": -1.128103, "longitude": 35.785685, "name": "Narok Airport", "geo": {"__type": "GeoPoint", "latitude": -1.128103, "longitude": 35.785685}}, {"latitude": -0.787953, "longitude": 36.433494, "name": "Naivasha Airport", "geo": {"__type": "GeoPoint", "latitude": -0.787953, "longitude": 36.433494}}, {"latitude": -1.32172000408172, "longitude": 36.8148002624511, "name": "Nairobi Wilson Airport", "geo": {"__type": "GeoPoint", "latitude": -1.32172000408172, "longitude": 36.8148002624511}}, {"latitude": -0.062399, "longitude": 37.041008, "name": "Nanyuki Airport", "geo": {"__type": "GeoPoint", "latitude": -0.062399, "longitude": 37.041008}}, {"latitude": -1.27726995945, "longitude": 36.8623008728, "name": "Moi Air Base", "geo": {"__type": "GeoPoint", "latitude": -1.27726995945, "longitude": 36.8623008728}}, {"latitude": -1.29821896553039, "longitude": 36.91554641723631, "name": "Embakasi Airport", "geo": {"__type": "GeoPoint", "latitude": -1.29821896553039, "longitude": 36.91554641723631}}, {"latitude": 0.530583, "longitude": 37.534195, "name": "Buffalo Spring", "geo": {"__type": "GeoPoint", "latitude": 0.530583, "longitude": 37.534195}}, {"latitude": -2.73, "longitude": 37.427, "name": "Tawi airfield", "geo": {"__type": "GeoPoint", "latitude": -2.73, "longitude": 37.427}}, {"latitude": -4.29333, "longitude": 39.571098, "name": "Ukunda Airstrip", "geo": {"__type": "GeoPoint", "latitude": -4.29333, "longitude": 39.571098}}, {"latitude": -3.37453889846801, "longitude": 38.53474807739249, "name": "Voi Airport", "geo": {"__type": "GeoPoint", "latitude": -3.37453889846801, "longitude": 38.53474807739249}}, {"latitude": 0.616999983787536, "longitude": 34.7830009460449, "name": "Webuye Airport", "geo": {"__type": "GeoPoint", "latitude": 0.616999983787536, "longitude": 34.7830009460449}}, {"latitude": 1.73324, "longitude": 40.091599, "name": "Wajir Airport", "geo": {"__type": "GeoPoint", "latitude": 1.73324, "longitude": 40.091599}}, {"latitude": -1.67719995975494, "longitude": 29.2588996887207, "name": "Gisenyi Airport", "geo": {"__type": "GeoPoint", "latitude": -1.67719995975494, "longitude": 29.2588996887207}}, {"latitude": -2.59582996368408, "longitude": 29.7367000579834, "name": "Butare Airport", "geo": {"__type": "GeoPoint", "latitude": -2.59582996368408, "longitude": 29.7367000579834}}, {"latitude": -2.33299994469, "longitude": 30.2000007629, "name": "Nemba Airport", "geo": {"__type": "GeoPoint", "latitude": -2.33299994469, "longitude": 30.2000007629}}, {"latitude": -1.54999995231628, "longitude": 30.382999420166, "name": "Gabiro Airport", "geo": {"__type": "GeoPoint", "latitude": -1.54999995231628, "longitude": 30.382999420166}}, {"latitude": -1.96863, "longitude": 30.1395, "name": "Kigali International Airport", "geo": {"__type": "GeoPoint", "latitude": -1.96863, "longitude": 30.1395}}, {"latitude": -1.496873, "longitude": 29.631343, "name": "Ruhengeri Airport", "geo": {"__type": "GeoPoint", "latitude": -1.496873, "longitude": 29.631343}}, {"latitude": -2.46223998069763, "longitude": 28.9078998565673, "name": "Kamembe Airport", "geo": {"__type": "GeoPoint", "latitude": -2.46223998069763, "longitude": 28.9078998565673}}, {"latitude": 7.7779, "longitude": 33.0027, "name": "Akobo Airport", "geo": {"__type": "GeoPoint", "latitude": 7.7779, "longitude": 33.0027}}, {"latitude": 17.7103443145751, "longitude": 34.0570182800293, "name": "Atbara Airport", "geo": {"__type": "GeoPoint", "latitude": 17.7103443145751, "longitude": 34.0570182800293}}, {"latitude": 8.767000198364249, "longitude": 27.3999996185302, "name": "Aweil Airport", "geo": {"__type": "GeoPoint", "latitude": 8.767000198364249, "longitude": 27.3999996185302}}, {"latitude": 6.191942, "longitude": 31.600408, "name": "Bor Airport", "geo": {"__type": "GeoPoint", "latitude": 6.191942, "longitude": 31.600408}}, {"latitude": 9.308488, "longitude": 29.787316, "name": "Bentiu Airport", "geo": {"__type": "GeoPoint", "latitude": 9.308488, "longitude": 29.787316}}, {"latitude": 18.751389, "longitude": 36.991667, "name": "Carthago Airport", "geo": {"__type": "GeoPoint", "latitude": 18.751389, "longitude": 36.991667}}, {"latitude": 18.0146, "longitude": 30.9595, "name": "El Debba Airport", "geo": {"__type": "GeoPoint", "latitude": 18.0146, "longitude": 30.9595}}, {"latitude": 11.9905996322631, "longitude": 29.6732006072998, "name": "Dilling Airport", "geo": {"__type": "GeoPoint", "latitude": 11.9905996322631, "longitude": 29.6732006072998}}, {"latitude": 19.1539001465, "longitude": 30.4300994873, "name": "Dongola Airport", "geo": {"__type": "GeoPoint", "latitude": 19.1539001465, "longitude": 30.4300994873}}, {"latitude": 11.7859, "longitude": 34.3367, "name": "Damazin Airport", "geo": {"__type": "GeoPoint", "latitude": 11.7859, "longitude": 34.3367}}, {"latitude": 10.529167, "longitude": 32.500556, "name": "Paloich Airport, Heliport", "geo": {"__type": "GeoPoint", "latitude": 10.529167, "longitude": 32.500556}}, {"latitude": 13.6148996353149, "longitude": 25.3246002197265, "name": "El Fasher Airport", "geo": {"__type": "GeoPoint", "latitude": 13.6148996353149, "longitude": 25.3246002197265}}, {"latitude": 14.121428, "longitude": 35.311861, "name": "Azaza Airport", "geo": {"__type": "GeoPoint", "latitude": 14.121428, "longitude": 35.311861}}, {"latitude": 12.5329999923706, "longitude": 35.0670013427734, "name": "Galegu Airport", "geo": {"__type": "GeoPoint", "latitude": 12.5329999923706, "longitude": 35.0670013427734}}, {"latitude": 13.481882, "longitude": 22.467119, "name": "Geneina Airport", "geo": {"__type": "GeoPoint", "latitude": 13.481882, "longitude": 22.467119}}, {"latitude": 18.8670005798339, "longitude": 28.1170005798339, "name": "Gogrial Airport", "geo": {"__type": "GeoPoint", "latitude": 18.8670005798339, "longitude": 28.1170005798339}}, {"latitude": 9.994933, "longitude": 29.397718, "name": "Heglig Airport", "geo": {"__type": "GeoPoint", "latitude": 9.994933, "longitude": 29.397718}}, {"latitude": 15.3874998092651, "longitude": 36.328800201416, "name": "Kassala Airport", "geo": {"__type": "GeoPoint", "latitude": 15.3874998092651, "longitude": 36.328800201416}}, {"latitude": 14.9250001907348, "longitude": 35.8779983520507, "name": "Khashm El Girba Airport", "geo": {"__type": "GeoPoint", "latitude": 14.9250001907348, "longitude": 35.8779983520507}}, {"latitude": 13.183, "longitude": 32.733002, "name": "Kosti Airport", "geo": {"__type": "GeoPoint", "latitude": 13.183, "longitude": 32.733002}}, {"latitude": 3.85754, "longitude": 31.65652, "name": "Kajo Keji Airport", "geo": {"__type": "GeoPoint", "latitude": 3.85754, "longitude": 31.65652}}, {"latitude": 4.7829999923706, "longitude": 33.5830001831054, "name": "Kapoeta Airport", "geo": {"__type": "GeoPoint", "latitude": 4.7829999923706, "longitude": 33.5830001831054}}, {"latitude": 11.1379995346, "longitude": 29.7010993958, "name": "Kadugli Airport", "geo": {"__type": "GeoPoint", "latitude": 11.1379995346, "longitude": 29.7010993958}}, {"latitude": 4.9169998168945295, "longitude": 29.466999053955, "name": "Marida Airport", "geo": {"__type": "GeoPoint", "latitude": 4.9169998168945295, "longitude": 29.466999053955}}, {"latitude": 6.82499980927, "longitude": 29.6690006256, "name": "Rumbek Airport", "geo": {"__type": "GeoPoint", "latitude": 6.82499980927, "longitude": 29.6690006256}}, {"latitude": 18.4433333333, "longitude": 31.8433333333, "name": "Merowe New Airport", "geo": {"__type": "GeoPoint", "latitude": 18.4433333333, "longitude": 31.8433333333}}, {"latitude": 18.455, "longitude": 31.8185, "name": "Merowe Airport", "geo": {"__type": "GeoPoint", "latitude": 18.455, "longitude": 31.8185}}, {"latitude": 16.700001, "longitude": 33.432999, "name": "Shendi Airport", "geo": {"__type": "GeoPoint", "latitude": 16.700001, "longitude": 33.432999}}, {"latitude": 12.6669998168945, "longitude": 28.3330001831054, "name": "En Nahud Airport", "geo": {"__type": "GeoPoint", "latitude": 12.6669998168945, "longitude": 28.3330001831054}}, {"latitude": 3.597659, "longitude": 32.090278, "name": "Nimule Airport", "geo": {"__type": "GeoPoint", "latitude": 3.597659, "longitude": 32.090278}}, {"latitude": 12.0535, "longitude": 24.9562, "name": "Nyala Airport", "geo": {"__type": "GeoPoint", "latitude": 12.0535, "longitude": 24.9562}}, {"latitude": 15.3556, "longitude": 35.727798, "name": "New Halfa Airport", "geo": {"__type": "GeoPoint", "latitude": 15.3556, "longitude": 35.727798}}, {"latitude": 13.1532001495361, "longitude": 30.2327003479003, "name": "El Obeid Airport", "geo": {"__type": "GeoPoint", "latitude": 13.1532001495361, "longitude": 30.2327003479003}}, {"latitude": 7.178563117980951, "longitude": 34.0973587036132, "name": "Pachella Airport", "geo": {"__type": "GeoPoint", "latitude": 7.178563117980951, "longitude": 34.0973587036132}}, {"latitude": 6.79333333333, "longitude": 33.1305555556, "name": "Pibor Airport", "geo": {"__type": "GeoPoint", "latitude": 6.79333333333, "longitude": 33.1305555556}}, {"latitude": 19.4335994720459, "longitude": 37.2341003417968, "name": "Port Sudan New International Airport", "geo": {"__type": "GeoPoint", "latitude": 19.4335994720459, "longitude": 37.2341003417968}}, {"latitude": 8.46111011505, "longitude": 25.6811008453, "name": "Raga Airport", "geo": {"__type": "GeoPoint", "latitude": 8.46111011505, "longitude": 25.6811008453}}, {"latitude": 11.8324692723, "longitude": 32.8104972839, "name": "Renk Airport", "geo": {"__type": "GeoPoint", "latitude": 11.8324692723, "longitude": 32.8104972839}}, {"latitude": 13.4774, "longitude": 22.53722, "name": "Sabera Geneina Airport", "geo": {"__type": "GeoPoint", "latitude": 13.4774, "longitude": 22.53722}}, {"latitude": 15.5895, "longitude": 32.5532, "name": "Khartoum International Airport", "geo": {"__type": "GeoPoint", "latitude": 15.5895, "longitude": 32.5532}}, {"latitude": 9.558970451354979, "longitude": 31.6522006988525, "name": "Malakal Airport", "geo": {"__type": "GeoPoint", "latitude": 9.558970451354979, "longitude": 31.6522006988525}}, {"latitude": 19.5764999389648, "longitude": 37.21590042114249, "name": "Port Sudan Air Base", "geo": {"__type": "GeoPoint", "latitude": 19.5764999389648, "longitude": 37.21590042114249}}, {"latitude": 21.802698, "longitude": 31.521578, "name": "Wadi Halfa Airport", "geo": {"__type": "GeoPoint", "latitude": 21.802698, "longitude": 31.521578}}, {"latitude": 7.26700019836425, "longitude": 28.9829998016357, "name": "Tong Airport", "geo": {"__type": "GeoPoint", "latitude": 7.26700019836425, "longitude": 28.9829998016357}}, {"latitude": 4.400000095367431, "longitude": 32.5830001831054, "name": "Torit Airport", "geo": {"__type": "GeoPoint", "latitude": 4.400000095367431, "longitude": 32.5830001831054}}, {"latitude": 5.59999990463256, "longitude": 27.4500007629394, "name": "Tumbura Airport", "geo": {"__type": "GeoPoint", "latitude": 5.59999990463256, "longitude": 27.4500007629394}}, {"latitude": 14.383605, "longitude": 33.526387, "name": "Wad Medani Airport", "geo": {"__type": "GeoPoint", "latitude": 14.383605, "longitude": 33.526387}}, {"latitude": 7.725830078119991, "longitude": 27.9750003815, "name": "Wau Airport", "geo": {"__type": "GeoPoint", "latitude": 7.725830078119991, "longitude": 27.9750003815}}, {"latitude": 4.567066, "longitude": 28.424106, "name": "Yambio Airport", "geo": {"__type": "GeoPoint", "latitude": 4.567066, "longitude": 28.424106}}, {"latitude": 4.13028160099, "longitude": 30.7280731201, "name": "Yei Airport", "geo": {"__type": "GeoPoint", "latitude": 4.13028160099, "longitude": 30.7280731201}}, {"latitude": 6.56699991226196, "longitude": 30.5, "name": "Yirol Airport", "geo": {"__type": "GeoPoint", "latitude": 6.56699991226196, "longitude": 30.5}}, {"latitude": 12.9437, "longitude": 23.5631, "name": "Zalingei Airport", "geo": {"__type": "GeoPoint", "latitude": 12.9437, "longitude": 23.5631}}, {"latitude": -6.957292, "longitude": 39.505588, "name": "Amani Beach Airport", "geo": {"__type": "GeoPoint", "latitude": -6.957292, "longitude": 39.505588}}, {"latitude": -3.36778998374938, "longitude": 36.63330078125, "name": "Arusha Airport", "geo": {"__type": "GeoPoint", "latitude": -3.36778998374938, "longitude": 36.63330078125}}, {"latitude": -7.748241, "longitude": 38.001833, "name": "Kibambawe Airstrip", "geo": {"__type": "GeoPoint", "latitude": -7.748241, "longitude": 38.001833}}, {"latitude": -11.331675, "longitude": 37.067816, "name": "Mbesa Airport", "geo": {"__type": "GeoPoint", "latitude": -11.331675, "longitude": 37.067816}}, {"latitude": -1.332, "longitude": 31.8212, "name": "Bukoba Airport", "geo": {"__type": "GeoPoint", "latitude": -1.332, "longitude": 31.8212}}, {"latitude": -8.558318, "longitude": 33.436368, "name": "Chunya Airport", "geo": {"__type": "GeoPoint", "latitude": -8.558318, "longitude": 33.436368}}, {"latitude": -6.87811, "longitude": 39.202599, "name": "Julius Nyerere International Airport", "geo": {"__type": "GeoPoint", "latitude": -6.87811, "longitude": 39.202599}}, {"latitude": -6.17044, "longitude": 35.752602, "name": "Dodoma Airport", "geo": {"__type": "GeoPoint", "latitude": -6.17044, "longitude": 35.752602}}, {"latitude": -3.194243, "longitude": 35.26315, "name": "Endulen Airport", "geo": {"__type": "GeoPoint", "latitude": -3.194243, "longitude": 35.26315}}, {"latitude": -8.919942, "longitude": 33.273981, "name": "Songwe Airport", "geo": {"__type": "GeoPoint", "latitude": -8.919942, "longitude": 33.273981}}, {"latitude": -7.668630123138419, "longitude": 35.7521018981933, "name": "Iringa Airport", "geo": {"__type": "GeoPoint", "latitude": -7.668630123138419, "longitude": 35.7521018981933}}, {"latitude": -6.719232, "longitude": 32.062657, "name": "Inyonga Airport", "geo": {"__type": "GeoPoint", "latitude": -6.719232, "longitude": 32.062657}}, {"latitude": -4.8862, "longitude": 29.6709, "name": "Kigoma Airport", "geo": {"__type": "GeoPoint", "latitude": -4.8862, "longitude": 29.6709}}, {"latitude": -3.52597999572753, "longitude": 30.6504001617431, "name": "Kibondo Airport", "geo": {"__type": "GeoPoint", "latitude": -3.52597999572753, "longitude": 30.6504001617431}}, {"latitude": -4.89371013641357, "longitude": 35.7682991027832, "name": "Kondoa Airport", "geo": {"__type": "GeoPoint", "latitude": -4.89371013641357, "longitude": 35.7682991027832}}, {"latitude": -8.91123, "longitude": 39.508619, "name": "Kilwa Airport", "geo": {"__type": "GeoPoint", "latitude": -8.91123, "longitude": 39.508619}}, {"latitude": -3.42941, "longitude": 37.074501, "name": "Kilimanjaro International Airport", "geo": {"__type": "GeoPoint", "latitude": -3.42941, "longitude": 37.074501}}, {"latitude": -4.312575, "longitude": 34.346453, "name": "Kirondatal Airport", "geo": {"__type": "GeoPoint", "latitude": -4.312575, "longitude": 34.346453}}, {"latitude": -6.150000095367431, "longitude": 36.416999816894496, "name": "Kongwa Airport", "geo": {"__type": "GeoPoint", "latitude": -6.150000095367431, "longitude": 36.416999816894496}}, {"latitude": -6.864605, "longitude": 37.00845, "name": "Kilosa Airport", "geo": {"__type": "GeoPoint", "latitude": -6.864605, "longitude": 37.00845}}, {"latitude": -5.831378, "longitude": 34.966387, "name": "Kilimatinde Airport", "geo": {"__type": "GeoPoint", "latitude": -5.831378, "longitude": 34.966387}}, {"latitude": -2.06968998908996, "longitude": 35.5457000732421, "name": "Loliondo Airport", "geo": {"__type": "GeoPoint", "latitude": -2.06968998908996, "longitude": 35.5457000732421}}, {"latitude": -9.851005, "longitude": 39.75911, "name": "Lindi Airport", "geo": {"__type": "GeoPoint", "latitude": -9.851005, "longitude": 39.75911}}, {"latitude": -11.1163997650146, "longitude": 34.6521987915039, "name": "Liuli Airport", "geo": {"__type": "GeoPoint", "latitude": -11.1163997650146, "longitude": 34.6521987915039}}, {"latitude": -3.37631011009216, "longitude": 35.8182983398437, "name": "Lake Manyara Airport", "geo": {"__type": "GeoPoint", "latitude": -3.37631011009216, "longitude": 35.8182983398437}}, {"latitude": -7.917478, "longitude": 39.668502, "name": "Mafia Airport", "geo": {"__type": "GeoPoint", "latitude": -7.917478, "longitude": 39.668502}}, {"latitude": -8.919444, "longitude": 33.463889, "name": "Mbeya Airport", "geo": {"__type": "GeoPoint", "latitude": -8.919444, "longitude": 33.463889}}, {"latitude": -3.521332, "longitude": 33.615542, "name": "Mwadui Airport", "geo": {"__type": "GeoPoint", "latitude": -3.521332, "longitude": 33.615542}}, {"latitude": -8.73204040527343, "longitude": 35.3026008605957, "name": "Mufindi Airport", "geo": {"__type": "GeoPoint", "latitude": -8.73204040527343, "longitude": 35.3026008605957}}, {"latitude": -6.797220230102529, "longitude": 37.653099060058494, "name": "Morogoro Airport", "geo": {"__type": "GeoPoint", "latitude": -6.797220230102529, "longitude": 37.653099060058494}}, {"latitude": -10.7329998016357, "longitude": 38.7669982910156, "name": "Masasi Airport", "geo": {"__type": "GeoPoint", "latitude": -10.7329998016357, "longitude": 38.7669982910156}}, {"latitude": -7.33342790603637, "longitude": 37.116359710693295, "name": "Mikumi Airport", "geo": {"__type": "GeoPoint", "latitude": -7.33342790603637, "longitude": 37.116359710693295}}, {"latitude": -6.012913, "longitude": 29.766937, "name": "Mahale Airstrip", "geo": {"__type": "GeoPoint", "latitude": -6.012913, "longitude": 29.766937}}, {"latitude": -4.882999897003169, "longitude": 38.28300094604489, "name": "Mombo Airport", "geo": {"__type": "GeoPoint", "latitude": -4.882999897003169, "longitude": 38.28300094604489}}, {"latitude": -6.355374, "longitude": 31.084116, "name": "Mpanda Airport", "geo": {"__type": "GeoPoint", "latitude": -6.355374, "longitude": 31.084116}}, {"latitude": -3.36332988739013, "longitude": 37.3269004821777, "name": "Moshi Airport", "geo": {"__type": "GeoPoint", "latitude": -3.36332988739013, "longitude": 37.3269004821777}}, {"latitude": -10.336204, "longitude": 40.181997, "name": "Mtwara Airport", "geo": {"__type": "GeoPoint", "latitude": -10.336204, "longitude": 40.181997}}, {"latitude": -1.503, "longitude": 33.8021, "name": "Musoma Airport", "geo": {"__type": "GeoPoint", "latitude": -1.503, "longitude": 33.8021}}, {"latitude": -2.4444899559021, "longitude": 32.9327011108398, "name": "Mwanza Airport", "geo": {"__type": "GeoPoint", "latitude": -2.4444899559021, "longitude": 32.9327011108398}}, {"latitude": -6.34999990463256, "longitude": 36.483001708984304, "name": "Mpwapwa Airport", "geo": {"__type": "GeoPoint", "latitude": -6.34999990463256, "longitude": 36.483001708984304}}, {"latitude": -10.3575000762939, "longitude": 38.7792015075683, "name": "Nachingwea Airport", "geo": {"__type": "GeoPoint", "latitude": -10.3575000762939, "longitude": 38.7792015075683}}, {"latitude": -6.717083, "longitude": 38.153944, "name": "Ngerengere Air Force Base", "geo": {"__type": "GeoPoint", "latitude": -6.717083, "longitude": 38.153944}}, {"latitude": -9.35000038146972, "longitude": 34.7999992370605, "name": "Njombe Airport", "geo": {"__type": "GeoPoint", "latitude": -9.35000038146972, "longitude": 34.7999992370605}}, {"latitude": -2.54179000854492, "longitude": 30.7031002044677, "name": "Ngara Airport", "geo": {"__type": "GeoPoint", "latitude": -2.54179000854492, "longitude": 30.7031002044677}}, {"latitude": -4.287732, "longitude": 36.616115, "name": "Oltipesi Airport", "geo": {"__type": "GeoPoint", "latitude": -4.287732, "longitude": 36.616115}}, {"latitude": -5.25726, "longitude": 39.811401, "name": "Pemba Airport", "geo": {"__type": "GeoPoint", "latitude": -5.25726, "longitude": 39.811401}}, {"latitude": -4.810928, "longitude": 34.724762, "name": "Singida Airport", "geo": {"__type": "GeoPoint", "latitude": -4.810928, "longitude": 34.724762}}, {"latitude": -4.053634, "longitude": 37.789462, "name": "Same Airport", "geo": {"__type": "GeoPoint", "latitude": -4.053634, "longitude": 37.789462}}, {"latitude": -8.35000038146972, "longitude": 35.2999992370605, "name": "Mafinga Airport", "geo": {"__type": "GeoPoint", "latitude": -8.35000038146972, "longitude": 35.2999992370605}}, {"latitude": -2.45806, "longitude": 34.822498, "name": "Seronera Airport", "geo": {"__type": "GeoPoint", "latitude": -2.45806, "longitude": 34.822498}}, {"latitude": -10.6829996109008, "longitude": 35.5830001831054, "name": "Songea Airport", "geo": {"__type": "GeoPoint", "latitude": -10.6829996109008, "longitude": 35.5830001831054}}, {"latitude": -7.948889, "longitude": 31.610278, "name": "Sumbawanga Airport", "geo": {"__type": "GeoPoint", "latitude": -7.948889, "longitude": 31.610278}}, {"latitude": -3.6093, "longitude": 33.5035, "name": "Shinyanga Airport", "geo": {"__type": "GeoPoint", "latitude": -3.6093, "longitude": 33.5035}}, {"latitude": -5.07638978958129, "longitude": 32.8333015441894, "name": "Tabora Airport", "geo": {"__type": "GeoPoint", "latitude": -5.07638978958129, "longitude": 32.8333015441894}}, {"latitude": -5.09236, "longitude": 39.071201, "name": "Tanga Airport", "geo": {"__type": "GeoPoint", "latitude": -5.09236, "longitude": 39.071201}}, {"latitude": -11.1000003814697, "longitude": 37.367000579833906, "name": "Tunduru Airport", "geo": {"__type": "GeoPoint", "latitude": -11.1000003814697, "longitude": 37.367000579833906}}, {"latitude": -2.0435299873352, "longitude": 33.0643997192382, "name": "Nansio Airport", "geo": {"__type": "GeoPoint", "latitude": -2.0435299873352, "longitude": 33.0643997192382}}, {"latitude": -5.075635, "longitude": 32.079868, "name": "Urambo Airport", "geo": {"__type": "GeoPoint", "latitude": -5.075635, "longitude": 32.079868}}, {"latitude": -7.999667, "longitude": 38.760234, "name": "Utete Airport", "geo": {"__type": "GeoPoint", "latitude": -7.999667, "longitude": 38.760234}}, {"latitude": -5.090771, "longitude": 30.406772, "name": "Uvinza Airport", "geo": {"__type": "GeoPoint", "latitude": -5.090771, "longitude": 30.406772}}, {"latitude": -3.04999995231628, "longitude": 37.0, "name": "West Kilimanjaro Airport", "geo": {"__type": "GeoPoint", "latitude": -3.04999995231628, "longitude": 37.0}}, {"latitude": -6.22202, "longitude": 39.224899, "name": "Abeid Amani Karume International Airport", "geo": {"__type": "GeoPoint", "latitude": -6.22202, "longitude": 39.224899}}, {"latitude": 3.339239, "longitude": 31.763854, "name": "Adjumani Airport", "geo": {"__type": "GeoPoint", "latitude": 3.339239, "longitude": 31.763854}}, {"latitude": 3.049152, "longitude": 30.911714, "name": "Arua Airport", "geo": {"__type": "GeoPoint", "latitude": 3.049152, "longitude": 30.911714}}, {"latitude": 0.67349, "longitude": 30.025483, "name": "Bundibugyo Airport", "geo": {"__type": "GeoPoint", "latitude": 0.67349, "longitude": 30.025483}}, {"latitude": 0.042386, "longitude": 32.443501, "name": "Entebbe International Airport", "geo": {"__type": "GeoPoint", "latitude": 0.042386, "longitude": 32.443501}}, {"latitude": 0.7063, "longitude": 30.2493, "name": "Fort Portal Airport", "geo": {"__type": "GeoPoint", "latitude": 0.7063, "longitude": 30.2493}}, {"latitude": 2.80556011199951, "longitude": 32.271800994873, "name": "Gulu Airport", "geo": {"__type": "GeoPoint", "latitude": 2.80556011199951, "longitude": 32.271800994873}}, {"latitude": 0.449999988079, "longitude": 33.2000007629, "name": "Jinja Airport", "geo": {"__type": "GeoPoint", "latitude": 0.449999988079, "longitude": 33.2000007629}}, {"latitude": -1.226111, "longitude": 29.96, "name": "Kabale Airport", "geo": {"__type": "GeoPoint", "latitude": -1.226111, "longitude": 29.96}}, {"latitude": 0.3262, "longitude": 32.594, "name": "Kololo Airstrip", "geo": {"__type": "GeoPoint", "latitude": 0.3262, "longitude": 32.594}}, {"latitude": 3.7176, "longitude": 33.7487, "name": "Kidepo Airport", "geo": {"__type": "GeoPoint", "latitude": 3.7176, "longitude": 33.7487}}, {"latitude": 2.326563, "longitude": 31.497698, "name": "Pakuba Airfield", "geo": {"__type": "GeoPoint", "latitude": 2.326563, "longitude": 31.497698}}, {"latitude": 0.1968, "longitude": 32.55297, "name": "Kajjansi Airfield", "geo": {"__type": "GeoPoint", "latitude": 0.1968, "longitude": 32.55297}}, {"latitude": 0.4933, "longitude": 33.281, "name": "Kakira Airport", "geo": {"__type": "GeoPoint", "latitude": 0.4933, "longitude": 33.281}}, {"latitude": 2.953, "longitude": 34.1232, "name": "Kotido Airport", "geo": {"__type": "GeoPoint", "latitude": 2.953, "longitude": 34.1232}}, {"latitude": 0.182999998331069, "longitude": 30.1000003814697, "name": "Kasese Airport", "geo": {"__type": "GeoPoint", "latitude": 0.182999998331069, "longitude": 30.1000003814697}}, {"latitude": 3.2817, "longitude": 32.8882, "name": "Kitgum Airport", "geo": {"__type": "GeoPoint", "latitude": 3.2817, "longitude": 32.8882}}, {"latitude": 2.25, "longitude": 32.9169998169, "name": "Lira Airport", "geo": {"__type": "GeoPoint", "latitude": 2.25, "longitude": 32.9169998169}}, {"latitude": -0.555278, "longitude": 30.5994, "name": "Mbarara Airport", "geo": {"__type": "GeoPoint", "latitude": -0.555278, "longitude": 30.5994}}, {"latitude": 1.7580599784851, "longitude": 31.7367000579834, "name": "Masindi Airport", "geo": {"__type": "GeoPoint", "latitude": 1.7580599784851, "longitude": 31.7367000579834}}, {"latitude": 2.5051, "longitude": 34.5946, "name": "Moroto Airport", "geo": {"__type": "GeoPoint", "latitude": 2.5051, "longitude": 34.5946}}, {"latitude": -0.194, "longitude": 29.8941, "name": "Mweya Airport", "geo": {"__type": "GeoPoint", "latitude": -0.194, "longitude": 29.8941}}, {"latitude": 2.202788, "longitude": 31.554341, "name": "Bugungu Airport", "geo": {"__type": "GeoPoint", "latitude": 2.202788, "longitude": 31.554341}}, {"latitude": 1.72768998146057, "longitude": 33.6227989196777, "name": "Soroti Airport", "geo": {"__type": "GeoPoint", "latitude": 1.72768998146057, "longitude": 33.6227989196777}}, {"latitude": 0.683000028133392, "longitude": 34.1669998168945, "name": "Tororo Airport", "geo": {"__type": "GeoPoint", "latitude": 0.683000028133392, "longitude": 34.1669998168945}}, {"latitude": -3.847, "longitude": 32.6865, "name": "Kahama Airstrip", "geo": {"__type": "GeoPoint", "latitude": -3.847, "longitude": 32.6865}}, {"latitude": -0.4665, "longitude": 34.063998, "name": "Mfangano Airport", "geo": {"__type": "GeoPoint", "latitude": -0.4665, "longitude": 34.063998}}, {"latitude": 0.133332997560501, "longitude": 34.0833320617675, "name": "Nzoia Airport", "geo": {"__type": "GeoPoint", "latitude": 0.133332997560501, "longitude": 34.0833320617675}}, {"latitude": -0.412667006254196, "longitude": 34.1425018310546, "name": "Rusinga Airport", "geo": {"__type": "GeoPoint", "latitude": -0.412667006254196, "longitude": 34.1425018310546}}, {"latitude": 3.80844902992248, "longitude": 34.3600959777832, "name": "Oropoi Airport", "geo": {"__type": "GeoPoint", "latitude": 3.80844902992248, "longitude": 34.3600959777832}}, {"latitude": -1.06927800178527, "longitude": 35.0507774353027, "name": "Mara Shikar Airport", "geo": {"__type": "GeoPoint", "latitude": -1.06927800178527, "longitude": 35.0507774353027}}, {"latitude": -2.1698, "longitude": 40.896, "name": "Camp Simba Airfield", "geo": {"__type": "GeoPoint", "latitude": -2.1698, "longitude": 40.896}}, {"latitude": -0.386000007390975, "longitude": 35.3341102600097, "name": "Chepgoiven Airport", "geo": {"__type": "GeoPoint", "latitude": -0.386000007390975, "longitude": 35.3341102600097}}, {"latitude": -1.13591694831848, "longitude": 35.3341407775878, "name": "Muswani Airport", "geo": {"__type": "GeoPoint", "latitude": -1.13591694831848, "longitude": 35.3341407775878}}, {"latitude": 0.649999976158142, "longitude": 35.3833312988281, "name": "Sergoit Airport", "geo": {"__type": "GeoPoint", "latitude": 0.649999976158142, "longitude": 35.3833312988281}}, {"latitude": -1.48333299160003, "longitude": 35.4166679382324, "name": "Siana Springs Airport", "geo": {"__type": "GeoPoint", "latitude": -1.48333299160003, "longitude": 35.4166679382324}}, {"latitude": 0.985943973064422, "longitude": 35.5508041381835, "name": "Olerai Airport", "geo": {"__type": "GeoPoint", "latitude": 0.985943973064422, "longitude": 35.5508041381835}}, {"latitude": -0.972346007823944, "longitude": 35.7467231750488, "name": "Oleshabani Airport", "geo": {"__type": "GeoPoint", "latitude": -0.972346007823944, "longitude": 35.7467231750488}}, {"latitude": -0.335999995470047, "longitude": 35.9174728393554, "name": "Njoro Country Club Airport", "geo": {"__type": "GeoPoint", "latitude": -0.335999995470047, "longitude": 35.9174728393554}}, {"latitude": -0.187795996665954, "longitude": 35.9670982360839, "name": "Barclays Airport", "geo": {"__type": "GeoPoint", "latitude": -0.187795996665954, "longitude": 35.9670982360839}}, {"latitude": 0.603166997432708, "longitude": 36.0130004882812, "name": "Lake Baringo (Kampi Ya Samaki) Airport", "geo": {"__type": "GeoPoint", "latitude": 0.603166997432708, "longitude": 36.0130004882812}}, {"latitude": -2.02033305168151, "longitude": 36.0391120910644, "name": "Shompole (Dry Lake) Airport", "geo": {"__type": "GeoPoint", "latitude": -2.02033305168151, "longitude": 36.0391120910644}}, {"latitude": -1.97558295726776, "longitude": 36.0483894348144, "name": "Shompole (\"All\" weather) Airport", "geo": {"__type": "GeoPoint", "latitude": -1.97558295726776, "longitude": 36.0483894348144}}, {"latitude": 1.16386103630065, "longitude": 36.08416748046871, "name": "Kapedo Airport", "geo": {"__type": "GeoPoint", "latitude": 1.16386103630065, "longitude": 36.08416748046871}}, {"latitude": -0.456582993268966, "longitude": 36.0849990844726, "name": "Naishi Airport", "geo": {"__type": "GeoPoint", "latitude": -0.456582993268966, "longitude": 36.0849990844726}}, {"latitude": -0.483944, "longitude": 36.124359, "name": "Congrieve Airfield", "geo": {"__type": "GeoPoint", "latitude": -0.483944, "longitude": 36.124359}}, {"latitude": -0.743035018444061, "longitude": 36.1722221374511, "name": "Ndabibi Airport", "geo": {"__type": "GeoPoint", "latitude": -0.743035018444061, "longitude": 36.1722221374511}}, {"latitude": 4.37777805328369, "longitude": 36.2166671752929, "name": "Seislucho Airport", "geo": {"__type": "GeoPoint", "latitude": 4.37777805328369, "longitude": 36.2166671752929}}, {"latitude": -0.866666972637176, "longitude": 36.2333335876464, "name": "Kongoni Airport", "geo": {"__type": "GeoPoint", "latitude": -0.866666972637176, "longitude": 36.2333335876464}}, {"latitude": -0.402556002140045, "longitude": 36.2360572814941, "name": "Delamare Camp Airport", "geo": {"__type": "GeoPoint", "latitude": -0.402556002140045, "longitude": 36.2360572814941}}, {"latitude": 1.51722204685211, "longitude": 36.28527832031249, "name": "Ngelesha Airport", "geo": {"__type": "GeoPoint", "latitude": 1.51722204685211, "longitude": 36.28527832031249}}, {"latitude": -0.819000005722045, "longitude": 36.2878341674804, "name": "Oserongoni Airport", "geo": {"__type": "GeoPoint", "latitude": -0.819000005722045, "longitude": 36.2878341674804}}, {"latitude": -0.699999988079071, "longitude": 36.316665649414, "name": "Loldia Airport", "geo": {"__type": "GeoPoint", "latitude": -0.699999988079071, "longitude": 36.316665649414}}, {"latitude": -0.494715, "longitude": 36.352908, "name": "Manyatta Airport", "geo": {"__type": "GeoPoint", "latitude": -0.494715, "longitude": 36.352908}}, {"latitude": -0.0137670002877712, "longitude": 36.3697357177734, "name": "Nyahururu Airport", "geo": {"__type": "GeoPoint", "latitude": -0.0137670002877712, "longitude": 36.3697357177734}}, {"latitude": -0.56777799129486, "longitude": 36.3833618164062, "name": "Kigio (Malewa) Airport", "geo": {"__type": "GeoPoint", "latitude": -0.56777799129486, "longitude": 36.3833618164062}}, {"latitude": -0.519306004047393, "longitude": 36.3841400146484, "name": "Ndume Langa Airport", "geo": {"__type": "GeoPoint", "latitude": -0.519306004047393, "longitude": 36.3841400146484}}, {"latitude": 0.714812, "longitude": 36.586594, "name": "Mugie Ranch Airport", "geo": {"__type": "GeoPoint", "latitude": 0.714812, "longitude": 36.586594}}, {"latitude": 0.413292, "longitude": 36.651665, "name": "Ol Maisor Airport", "geo": {"__type": "GeoPoint", "latitude": 0.413292, "longitude": 36.651665}}, {"latitude": -1.581194, "longitude": 36.812832, "name": "Orly (Olooitikosh) Airport", "geo": {"__type": "GeoPoint", "latitude": -1.581194, "longitude": 36.812832}}, {"latitude": -2.12287592887878, "longitude": 36.8174819946289, "name": "Tadlitium Airport", "geo": {"__type": "GeoPoint", "latitude": -2.12287592887878, "longitude": 36.8174819946289}}, {"latitude": 0.647221982479095, "longitude": 36.850860595703104, "name": "Muridjo Ranch Airport", "geo": {"__type": "GeoPoint", "latitude": 0.647221982479095, "longitude": 36.850860595703104}}, {"latitude": -0.141092, "longitude": 36.914995, "name": "Nanyuki West Airport", "geo": {"__type": "GeoPoint", "latitude": -0.141092, "longitude": 36.914995}}, {"latitude": 0.0306109990924596, "longitude": 36.9008331298828, "name": "Olpejeta Airport", "geo": {"__type": "GeoPoint", "latitude": 0.0306109990924596, "longitude": 36.9008331298828}}, {"latitude": 0.197249993681907, "longitude": 36.91749954223631, "name": "El Karama Airport", "geo": {"__type": "GeoPoint", "latitude": 0.197249993681907, "longitude": 36.91749954223631}}, {"latitude": -1.14595198631286, "longitude": 36.91798782348631, "name": "Talu Airport", "geo": {"__type": "GeoPoint", "latitude": -1.14595198631286, "longitude": 36.91798782348631}}, {"latitude": -0.298471, "longitude": 36.947185, "name": "Laburra Airport", "geo": {"__type": "GeoPoint", "latitude": -0.298471, "longitude": 36.947185}}, {"latitude": 0.933332979679107, "longitude": 37.066665649414, "name": "Hall Hall Airport", "geo": {"__type": "GeoPoint", "latitude": 0.933332979679107, "longitude": 37.066665649414}}, {"latitude": 2.93036103248596, "longitude": 37.067527770996, "name": "Hall Strip Airport", "geo": {"__type": "GeoPoint", "latitude": 2.93036103248596, "longitude": 37.067527770996}}, {"latitude": 0.133844003081321, "longitude": 37.1592063903808, "name": "Kamwaki Farm Airport", "geo": {"__type": "GeoPoint", "latitude": 0.133844003081321, "longitude": 37.1592063903808}}, {"latitude": 0.0472779981791973, "longitude": 37.200832366943295, "name": "Ibis Farm Airport", "geo": {"__type": "GeoPoint", "latitude": 0.0472779981791973, "longitude": 37.200832366943295}}, {"latitude": 0.0972779989242553, "longitude": 37.30086135864249, "name": "Oldonyo Farm Airport", "geo": {"__type": "GeoPoint", "latitude": 0.0972779989242553, "longitude": 37.30086135864249}}, {"latitude": 0.426221996545791, "longitude": 37.3340263366699, "name": "Tassia Airport", "geo": {"__type": "GeoPoint", "latitude": 0.426221996545791, "longitude": 37.3340263366699}}, {"latitude": -0.696676015853881, "longitude": 37.3746185302734, "name": "Wanguru (Thiba) Airport", "geo": {"__type": "GeoPoint", "latitude": -0.696676015853881, "longitude": 37.3746185302734}}, {"latitude": 0.635479, "longitude": 37.380327, "name": "Loloroi Airport", "geo": {"__type": "GeoPoint", "latitude": 0.635479, "longitude": 37.380327}}, {"latitude": -1.04999995231628, "longitude": 37.4333343505859, "name": "Sarara Airport", "geo": {"__type": "GeoPoint", "latitude": -1.04999995231628, "longitude": 37.4333343505859}}, {"latitude": -0.0526540018618106, "longitude": 37.464542388916, "name": "Rutundu Airport", "geo": {"__type": "GeoPoint", "latitude": -0.0526540018618106, "longitude": 37.464542388916}}, {"latitude": 0.197249993681907, "longitude": 37.467529296875, "name": "Il Ngwesi Airport", "geo": {"__type": "GeoPoint", "latitude": 0.197249993681907, "longitude": 37.467529296875}}, {"latitude": -2.56083297729492, "longitude": 37.541000366210895, "name": "Mbirikani Airport", "geo": {"__type": "GeoPoint", "latitude": -2.56083297729492, "longitude": 37.541000366210895}}, {"latitude": 3.4166669845581, "longitude": 37.7666664123535, "name": "Harris Hills Airport", "geo": {"__type": "GeoPoint", "latitude": 3.4166669845581, "longitude": 37.7666664123535}}, {"latitude": -3.6169440746307298, "longitude": 37.7789154052734, "name": "Lake Jipe Airport", "geo": {"__type": "GeoPoint", "latitude": -3.6169440746307298, "longitude": 37.7789154052734}}, {"latitude": -2.94596791267395, "longitude": 37.914688110351506, "name": "Finch Hattons Airport", "geo": {"__type": "GeoPoint", "latitude": -2.94596791267395, "longitude": 37.914688110351506}}, {"latitude": -3.40816688537597, "longitude": 38.1196670532226, "name": "Maktau Gate Airport", "geo": {"__type": "GeoPoint", "latitude": -3.40816688537597, "longitude": 38.1196670532226}}, {"latitude": -2.75, "longitude": 38.1199989318847, "name": "Kamboyo(Tsavo West) Airport", "geo": {"__type": "GeoPoint", "latitude": -2.75, "longitude": 38.1199989318847}}, {"latitude": -3.17936396598815, "longitude": 38.1310119628906, "name": "Kangetchwa Airport", "geo": {"__type": "GeoPoint", "latitude": -3.17936396598815, "longitude": 38.1310119628906}}, {"latitude": -2.21672201156616, "longitude": 38.386890411376896, "name": "Ithumba Airport", "geo": {"__type": "GeoPoint", "latitude": -2.21672201156616, "longitude": 38.386890411376896}}, {"latitude": -3.39374995231628, "longitude": 38.9468612670898, "name": "Satao Airport", "geo": {"__type": "GeoPoint", "latitude": -3.39374995231628, "longitude": 38.9468612670898}}, {"latitude": -2.21919393539428, "longitude": 39.100887298583906, "name": "Kone Airport", "geo": {"__type": "GeoPoint", "latitude": -2.21919393539428, "longitude": 39.100887298583906}}, {"latitude": 3.45000004768371, "longitude": 39.132999420166, "name": "Moyale (Boma) Airport", "geo": {"__type": "GeoPoint", "latitude": 3.45000004768371, "longitude": 39.132999420166}}, {"latitude": -3.0691111087799, "longitude": 39.2342224121093, "name": "Crocodile Camp Airport", "geo": {"__type": "GeoPoint", "latitude": -3.0691111087799, "longitude": 39.2342224121093}}, {"latitude": -4.16979503631591, "longitude": 39.4318656921386, "name": "Kwale Airport", "geo": {"__type": "GeoPoint", "latitude": -4.16979503631591, "longitude": 39.4318656921386}}, {"latitude": -2.73333311080932, "longitude": 39.533332824707, "name": "Kore Galana Ranch Airport", "geo": {"__type": "GeoPoint", "latitude": -2.73333311080932, "longitude": 39.533332824707}}, {"latitude": -2.9166669845581, "longitude": 39.550918579101506, "name": "Komawayu (Tanke) Airport", "geo": {"__type": "GeoPoint", "latitude": -2.9166669845581, "longitude": 39.550918579101506}}, {"latitude": -3.80666666667, "longitude": 39.7973888889, "name": "Vipingo Estate Airport", "geo": {"__type": "GeoPoint", "latitude": -3.80666666667, "longitude": 39.7973888889}}, {"latitude": -3.84313893318176, "longitude": 39.8051681518554, "name": "Kijipwa Airport", "geo": {"__type": "GeoPoint", "latitude": -3.84313893318176, "longitude": 39.8051681518554}}, {"latitude": -2.26805591583251, "longitude": 40.0937767028808, "name": "Garsen Airport", "geo": {"__type": "GeoPoint", "latitude": -2.26805591583251, "longitude": 40.0937767028808}}, {"latitude": 3.9230821132659903, "longitude": 41.2236900329589, "name": "Rhamu Airport", "geo": {"__type": "GeoPoint", "latitude": 3.9230821132659903, "longitude": 41.2236900329589}}, {"latitude": 0.231557, "longitude": 37.364159, "name": "Ngare Ndare Airstrip", "geo": {"__type": "GeoPoint", "latitude": 0.231557, "longitude": 37.364159}}, {"latitude": 0.26957, "longitude": 37.328098, "name": "Laragai Airstrip", "geo": {"__type": "GeoPoint", "latitude": 0.26957, "longitude": 37.328098}}, {"latitude": 0.032933, "longitude": 37.026901, "name": "Laikipia Air Base", "geo": {"__type": "GeoPoint", "latitude": 0.032933, "longitude": 37.026901}}, {"latitude": -0.162177994847297, "longitude": 37.4458999633789, "name": "Private Airstrip near Lenana", "geo": {"__type": "GeoPoint", "latitude": -0.162177994847297, "longitude": 37.4458999633789}}, {"latitude": 1.994582, "longitude": 37.916434, "name": "Log Logo Airstrip", "geo": {"__type": "GeoPoint", "latitude": 1.994582, "longitude": 37.916434}}, {"latitude": 3.134855, "longitude": 37.426236, "name": "Kalacha Airport", "geo": {"__type": "GeoPoint", "latitude": 3.134855, "longitude": 37.426236}}, {"latitude": 1.06402, "longitude": 37.720198, "name": "Kauro Airstrip", "geo": {"__type": "GeoPoint", "latitude": 1.06402, "longitude": 37.720198}}, {"latitude": -1.847326, "longitude": 40.091586, "name": "Baomo Tana Airport", "geo": {"__type": "GeoPoint", "latitude": -1.847326, "longitude": 40.091586}}, {"latitude": -1.189574, "longitude": 39.81448, "name": "Bura West Airport", "geo": {"__type": "GeoPoint", "latitude": -1.189574, "longitude": 39.81448}}, {"latitude": -0.069552, "longitude": 38.382484, "name": "Tana River Rapids Airport", "geo": {"__type": "GeoPoint", "latitude": -0.069552, "longitude": 38.382484}}, {"latitude": -0.049021, "longitude": 38.308839, "name": "Tana River Airport", "geo": {"__type": "GeoPoint", "latitude": -0.049021, "longitude": 38.308839}}, {"latitude": 0.118977, "longitude": 38.268425, "name": "Rojewero River Airport", "geo": {"__type": "GeoPoint", "latitude": 0.118977, "longitude": 38.268425}}, {"latitude": 0.02597, "longitude": 38.065436, "name": "Tharaka Nithi Meru Airport", "geo": {"__type": "GeoPoint", "latitude": 0.02597, "longitude": 38.065436}}, {"latitude": -0.802034, "longitude": 36.411967, "name": "Airspray Naivasha Airfield", "geo": {"__type": "GeoPoint", "latitude": -0.802034, "longitude": 36.411967}}, {"latitude": 2.267596, "longitude": 35.029196, "name": "Alale Airport", "geo": {"__type": "GeoPoint", "latitude": 2.267596, "longitude": 35.029196}}, {"latitude": 3.705058, "longitude": 36.262236, "name": "Alia Bay Airport", "geo": {"__type": "GeoPoint", "latitude": 3.705058, "longitude": 36.262236}}, {"latitude": 3.566973, "longitude": 41.511833, "name": "Arabia Airport", "geo": {"__type": "GeoPoint", "latitude": 3.566973, "longitude": 41.511833}}, {"latitude": -0.107107, "longitude": 39.046973, "name": "Asako Airport", "geo": {"__type": "GeoPoint", "latitude": -0.107107, "longitude": 39.046973}}, {"latitude": -1.51094, "longitude": 37.034369, "name": "Athi River Airport", "geo": {"__type": "GeoPoint", "latitude": -1.51094, "longitude": 37.034369}}, {"latitude": -3.663575, "longitude": 38.945339, "name": "Bachuma Gate Airport", "geo": {"__type": "GeoPoint", "latitude": -3.663575, "longitude": 38.945339}}, {"latitude": 1.807578, "longitude": 36.679137, "name": "Baragoi West Airport", "geo": {"__type": "GeoPoint", "latitude": 1.807578, "longitude": 36.679137}}, {"latitude": 1.340706, "longitude": 36.856679, "name": "Barsaloi Airport", "geo": {"__type": "GeoPoint", "latitude": 1.340706, "longitude": 36.856679}}, {"latitude": -0.795118, "longitude": 36.295698, "name": "Barton's Naivasha Airport", "geo": {"__type": "GeoPoint", "latitude": -0.795118, "longitude": 36.295698}}, {"latitude": -0.767433, "longitude": 36.397561, "name": "Crescent Island Naivasha Airport", "geo": {"__type": "GeoPoint", "latitude": -0.767433, "longitude": 36.397561}}, {"latitude": 2.505995, "longitude": 37.565966, "name": "Belatrix Kargi Airport", "geo": {"__type": "GeoPoint", "latitude": 2.505995, "longitude": 37.565966}}, {"latitude": -2.136863, "longitude": 36.838493, "name": "Bissel Airport", "geo": {"__type": "GeoPoint", "latitude": -2.136863, "longitude": 36.838493}}, {"latitude": -1.040713, "longitude": 36.992879, "name": "Bobs Harries Airport", "geo": {"__type": "GeoPoint", "latitude": -1.040713, "longitude": 36.992879}}, {"latitude": -1.014198, "longitude": 35.342806, "name": "Bogani Airport", "geo": {"__type": "GeoPoint", "latitude": -1.014198, "longitude": 35.342806}}, {"latitude": -0.776471, "longitude": 35.318411, "name": "Bomet Airport", "geo": {"__type": "GeoPoint", "latitude": -0.776471, "longitude": 35.318411}}, {"latitude": 2.80117, "longitude": 39.481787, "name": "Buna Airport", "geo": {"__type": "GeoPoint", "latitude": 2.80117, "longitude": 39.481787}}, {"latitude": 3.337517, "longitude": 39.41424, "name": "Bute Moyale Airport", "geo": {"__type": "GeoPoint", "latitude": 3.337517, "longitude": 39.41424}}, {"latitude": -0.191457, "longitude": 35.864189, "name": "Carzan Rongai Airport", "geo": {"__type": "GeoPoint", "latitude": -0.191457, "longitude": 35.864189}}, {"latitude": 0.667151, "longitude": 37.910007, "name": "Chaffa Airport", "geo": {"__type": "GeoPoint", "latitude": 0.667151, "longitude": 37.910007}}, {"latitude": -2.527368, "longitude": 37.731488, "name": "Chyulus Airport", "geo": {"__type": "GeoPoint", "latitude": -2.527368, "longitude": 37.731488}}, {"latitude": -1.680954, "longitude": 35.344401, "name": "Cottars Mara Airport", "geo": {"__type": "GeoPoint", "latitude": -1.680954, "longitude": 35.344401}}, {"latitude": 0.058189, "longitude": 40.318055, "name": "Dadaab Airstrip", "geo": {"__type": "GeoPoint", "latitude": 0.058189, "longitude": 40.318055}}, {"latitude": 0.367944, "longitude": 37.141442, "name": "Dol Dol Airport", "geo": {"__type": "GeoPoint", "latitude": 0.367944, "longitude": 37.141442}}, {"latitude": 1.465284, "longitude": 37.073011, "name": "El Kantor Airport", "geo": {"__type": "GeoPoint", "latitude": 1.465284, "longitude": 37.073011}}, {"latitude": 0.237853, "longitude": 37.077848, "name": "Enasoit Airport", "geo": {"__type": "GeoPoint", "latitude": 0.237853, "longitude": 37.077848}}, {"latitude": 0.510757, "longitude": 36.294394, "name": "Engelesha Airport", "geo": {"__type": "GeoPoint", "latitude": 0.510757, "longitude": 36.294394}}, {"latitude": -1.783522, "longitude": 36.057783, "name": "Entasopia Airport", "geo": {"__type": "GeoPoint", "latitude": -1.783522, "longitude": 36.057783}}, {"latitude": -1.842318, "longitude": 35.86778, "name": "Entesekera Airport", "geo": {"__type": "GeoPoint", "latitude": -1.842318, "longitude": 35.86778}}, {"latitude": -4.573672, "longitude": 39.447079, "name": "Funzi Island Airport", "geo": {"__type": "GeoPoint", "latitude": -4.573672, "longitude": 39.447079}}, {"latitude": -3.062141, "longitude": 39.331661, "name": "Galana Ranch Airstrip", "geo": {"__type": "GeoPoint", "latitude": -3.062141, "longitude": 39.331661}}, {"latitude": 2.636477, "longitude": 36.932055, "name": "Gatab Lower Airport", "geo": {"__type": "GeoPoint", "latitude": 2.636477, "longitude": 36.932055}}, {"latitude": -0.502798, "longitude": 36.356915, "name": "Gilgil Coulson Airport", "geo": {"__type": "GeoPoint", "latitude": -0.502798, "longitude": 36.356915}}, {"latitude": -0.18786, "longitude": 35.856818, "name": "Gogar Airport", "geo": {"__type": "GeoPoint", "latitude": -0.18786, "longitude": 35.856818}}, {"latitude": 1.016215, "longitude": 39.505836, "name": "Habaswein Airport", "geo": {"__type": "GeoPoint", "latitude": 1.016215, "longitude": 39.505836}}, {"latitude": 4.281881, "longitude": 36.266951, "name": "Ileret Main Airport", "geo": {"__type": "GeoPoint", "latitude": 4.281881, "longitude": 36.266951}}, {"latitude": 4.304698, "longitude": 36.235572, "name": "Ileret Town Airport", "geo": {"__type": "GeoPoint", "latitude": 4.304698, "longitude": 36.235572}}, {"latitude": -1.806828, "longitude": 35.704339, "name": "Ilkerin Airport", "geo": {"__type": "GeoPoint", "latitude": -1.806828, "longitude": 35.704339}}, {"latitude": -0.523628, "longitude": 36.187582, "name": "Jolai Delamere Estates Airport", "geo": {"__type": "GeoPoint", "latitude": -0.523628, "longitude": 36.187582}}, {"latitude": 0.69463, "longitude": 37.612912, "name": "Kalama Airport", "geo": {"__type": "GeoPoint", "latitude": 0.69463, "longitude": 37.612912}}, {"latitude": -0.823913, "longitude": 37.715869, "name": "Kamburu Airport", "geo": {"__type": "GeoPoint", "latitude": -0.823913, "longitude": 37.715869}}, {"latitude": 0.601706, "longitude": 36.73699, "name": "Kamogi Ranch Airstrip", "geo": {"__type": "GeoPoint", "latitude": 0.601706, "longitude": 36.73699}}, {"latitude": -2.75235, "longitude": 37.878257, "name": "Kanzi Airport", "geo": {"__type": "GeoPoint", "latitude": -2.75235, "longitude": 37.878257}}, {"latitude": -3.85072, "longitude": 38.515401, "name": "Kasigau Gate Airport", "geo": {"__type": "GeoPoint", "latitude": -3.85072, "longitude": 38.515401}}, {"latitude": 3.756125, "longitude": 35.833843, "name": "Kataboi Airport", "geo": {"__type": "GeoPoint", "latitude": 3.756125, "longitude": 35.833843}}, {"latitude": 2.284583, "longitude": 35.429495, "name": "Katilu Airport", "geo": {"__type": "GeoPoint", "latitude": 2.284583, "longitude": 35.429495}}, {"latitude": -1.299226, "longitude": 36.475029, "name": "Kedong Airport", "geo": {"__type": "GeoPoint", "latitude": -1.299226, "longitude": 36.475029}}, {"latitude": -1.263497, "longitude": 35.027533, "name": "Kichwa Tembo Airport", "geo": {"__type": "GeoPoint", "latitude": -1.263497, "longitude": 35.027533}}, {"latitude": 0.173081, "longitude": 36.583018, "name": "Kifuku Estate Airstrip", "geo": {"__type": "GeoPoint", "latitude": 0.173081, "longitude": 36.583018}}, {"latitude": -0.956812, "longitude": 36.592155, "name": "Kijabe Airport", "geo": {"__type": "GeoPoint", "latitude": -0.956812, "longitude": 36.592155}}, {"latitude": -2.627593, "longitude": 38.338681, "name": "Kilalinda Airport", "geo": {"__type": "GeoPoint", "latitude": -2.627593, "longitude": 38.338681}}, {"latitude": -2.752942, "longitude": 37.525214, "name": "Kimana Airstrip", "geo": {"__type": "GeoPoint", "latitude": -2.752942, "longitude": 37.525214}}, {"latitude": -0.454084, "longitude": 36.493097, "name": "Kipipri Airport", "geo": {"__type": "GeoPoint", "latitude": -0.454084, "longitude": 36.493097}}, {"latitude": 0.598082, "longitude": 37.319715, "name": "Kipsin Airstrip", "geo": {"__type": "GeoPoint", "latitude": 0.598082, "longitude": 37.319715}}, {"latitude": 0.512642, "longitude": 36.694537, "name": "Kisima Ranch Airstrip", "geo": {"__type": "GeoPoint", "latitude": 0.512642, "longitude": 36.694537}}, {"latitude": -1.917027, "longitude": 36.004027, "name": "Koka Airport", "geo": {"__type": "GeoPoint", "latitude": -1.917027, "longitude": 36.004027}}, {"latitude": -0.843317, "longitude": 36.259475, "name": "Kongoni Game Valley Airport", "geo": {"__type": "GeoPoint", "latitude": -0.843317, "longitude": 36.259475}}, {"latitude": 2.013786, "longitude": 37.516742, "name": "Korr Airport", "geo": {"__type": "GeoPoint", "latitude": 2.013786, "longitude": 37.516742}}, {"latitude": 2.007568, "longitude": 37.492219, "name": "Korr AIM Airstrip", "geo": {"__type": "GeoPoint", "latitude": 2.007568, "longitude": 37.492219}}, {"latitude": 2.00616, "longitude": 36.8299, "name": "Kowop Airstrip", "geo": {"__type": "GeoPoint", "latitude": 2.00616, "longitude": 36.8299}}, {"latitude": -1.12471, "longitude": 35.197795, "name": "Kuluo Airport", "geo": {"__type": "GeoPoint", "latitude": -1.12471, "longitude": 35.197795}}, {"latitude": 0.645962, "longitude": 36.427784, "name": "Kuti Airport", "geo": {"__type": "GeoPoint", "latitude": 0.645962, "longitude": 36.427784}}, {"latitude": -2.228949, "longitude": 40.971447, "name": "Manda Point Airstrip", "geo": {"__type": "GeoPoint", "latitude": -2.228949, "longitude": 40.971447}}, {"latitude": -1.536513, "longitude": 36.020637, "name": "Langata Enerit Airstrip", "geo": {"__type": "GeoPoint", "latitude": -1.536513, "longitude": 36.020637}}, {"latitude": 0.591385, "longitude": 37.586685, "name": "Larsens Camp Airstrip", "geo": {"__type": "GeoPoint", "latitude": 0.591385, "longitude": 37.586685}}, {"latitude": 1.547691, "longitude": 37.108677, "name": "Latakwen Airport", "geo": {"__type": "GeoPoint", "latitude": 1.547691, "longitude": 37.108677}}, {"latitude": 2.243084, "longitude": 36.670897, "name": "Lenchukuti Airport", "geo": {"__type": "GeoPoint", "latitude": 2.243084, "longitude": 36.670897}}, {"latitude": 0.504473, "longitude": 37.006397, "name": "Lentille Airport", "geo": {"__type": "GeoPoint", "latitude": 0.504473, "longitude": 37.006397}}, {"latitude": -1.106687, "longitude": 36.688778, "name": "Limuru Airstrip", "geo": {"__type": "GeoPoint", "latitude": -1.106687, "longitude": 36.688778}}, {"latitude": 0.107106, "longitude": 37.278907, "name": "Lolomarik Airport", "geo": {"__type": "GeoPoint", "latitude": 0.107106, "longitude": 37.278907}}, {"latitude": -0.817072, "longitude": 36.391407, "name": "Longonot Fair Airstrip", "geo": {"__type": "GeoPoint", "latitude": -0.817072, "longitude": 36.391407}}, {"latitude": 4.283992, "longitude": 35.874055, "name": "Lowarengak Airport", "geo": {"__type": "GeoPoint", "latitude": 4.283992, "longitude": 35.874055}}, {"latitude": -3.048607, "longitude": 38.689626, "name": "Lugard Falls South Airport", "geo": {"__type": "GeoPoint", "latitude": -3.048607, "longitude": 38.689626}}, {"latitude": -1.483679, "longitude": 37.098339, "name": "Malinda Estate Airstrip", "geo": {"__type": "GeoPoint", "latitude": -1.483679, "longitude": 37.098339}}, {"latitude": -3.094749, "longitude": 38.476476, "name": "Manyani Airport", "geo": {"__type": "GeoPoint", "latitude": -3.094749, "longitude": 38.476476}}, {"latitude": -0.436093, "longitude": 35.298761, "name": "Marinyn Airport", "geo": {"__type": "GeoPoint", "latitude": -0.436093, "longitude": 35.298761}}, {"latitude": -0.043734, "longitude": 37.145506, "name": "Mawingo Airprot", "geo": {"__type": "GeoPoint", "latitude": -0.043734, "longitude": 37.145506}}, {"latitude": -0.397362, "longitude": 36.215325, "name": "Mbaruk Airport", "geo": {"__type": "GeoPoint", "latitude": -0.397362, "longitude": 36.215325}}, {"latitude": 1.089888, "longitude": 38.600205, "name": "Meriti Oil Rig Airstrip", "geo": {"__type": "GeoPoint", "latitude": 1.089888, "longitude": 38.600205}}, {"latitude": -0.1115, "longitude": 36.124334, "name": "Milmet Airport", "geo": {"__type": "GeoPoint", "latitude": -0.1115, "longitude": 36.124334}}, {"latitude": 1.209714, "longitude": 34.796225, "name": "Mount Elgon Orchards Airstrip", "geo": {"__type": "GeoPoint", "latitude": 1.209714, "longitude": 34.796225}}, {"latitude": 0.353531, "longitude": 36.892033, "name": "Mpala Farm Airstrip", "geo": {"__type": "GeoPoint", "latitude": 0.353531, "longitude": 36.892033}}, {"latitude": 0.29012, "longitude": 36.892436, "name": "Mpala Research Center Airstrip", "geo": {"__type": "GeoPoint", "latitude": 0.29012, "longitude": 36.892436}}, {"latitude": 0.126097, "longitude": 38.132497, "name": "Mughwango Airstrip", "geo": {"__type": "GeoPoint", "latitude": 0.126097, "longitude": 38.132497}}, {"latitude": 0.251711, "longitude": 36.805338, "name": "Mukenye Ranch Airstrip", "geo": {"__type": "GeoPoint", "latitude": 0.251711, "longitude": 36.805338}}, {"latitude": -1.846779, "longitude": 38.204732, "name": "Mutomo Airport", "geo": {"__type": "GeoPoint", "latitude": -1.846779, "longitude": 38.204732}}, {"latitude": -3.517815, "longitude": 38.442556, "name": "Mwatate Airport", "geo": {"__type": "GeoPoint", "latitude": -3.517815, "longitude": 38.442556}}, {"latitude": 1.058237, "longitude": 37.437892, "name": "Namunyak Airport", "geo": {"__type": "GeoPoint", "latitude": 1.058237, "longitude": 37.437892}}, {"latitude": 4.114254, "longitude": 35.840039, "name": "Nariokotome Airport", "geo": {"__type": "GeoPoint", "latitude": 4.114254, "longitude": 35.840039}}, {"latitude": -0.170666, "longitude": 37.136612, "name": "National Park Airstrip", "geo": {"__type": "GeoPoint", "latitude": -0.170666, "longitude": 37.136612}}, {"latitude": 1.170659, "longitude": 37.252765, "name": "Ngalai Airport", "geo": {"__type": "GeoPoint", "latitude": 1.170659, "longitude": 37.252765}}, {"latitude": -2.42834, "longitude": 40.193087, "name": "Ngao Airport", "geo": {"__type": "GeoPoint", "latitude": -2.42834, "longitude": 40.193087}}, {"latitude": 1.735737, "longitude": 37.3216, "name": "Ngurunit South Airport", "geo": {"__type": "GeoPoint", "latitude": 1.735737, "longitude": 37.3216}}, {"latitude": -1.713528, "longitude": 35.560338, "name": "Ol Derkessi Airstrip", "geo": {"__type": "GeoPoint", "latitude": -1.713528, "longitude": 35.560338}}, {"latitude": -1.813717, "longitude": 36.018261, "name": "Ol Donyo Laro Airport", "geo": {"__type": "GeoPoint", "latitude": -1.813717, "longitude": 36.018261}}, {"latitude": 0.659821, "longitude": 36.868623, "name": "Ol Malo Lodge Airstrip", "geo": {"__type": "GeoPoint", "latitude": 0.659821, "longitude": 36.868623}}, {"latitude": -1.378382, "longitude": 35.378453, "name": "Ol Seki Airstrip", "geo": {"__type": "GeoPoint", "latitude": -1.378382, "longitude": 35.378453}}, {"latitude": 0.60964, "longitude": 37.53018, "name": "Oryx Airport", "geo": {"__type": "GeoPoint", "latitude": 0.60964, "longitude": 37.53018}}, {"latitude": -1.606288, "longitude": 35.436835, "name": "Oseur Airstrip", "geo": {"__type": "GeoPoint", "latitude": -1.606288, "longitude": 35.436835}}, {"latitude": 2.846734, "longitude": 35.050887, "name": "Perror Airport", "geo": {"__type": "GeoPoint", "latitude": 2.846734, "longitude": 35.050887}}, {"latitude": -3.575566, "longitude": 38.760165, "name": "Rukinga Ranch Airstrip", "geo": {"__type": "GeoPoint", "latitude": -3.575566, "longitude": 38.760165}}, {"latitude": 0.431231, "longitude": 36.729133, "name": "Saguta Naibor Ranch Airstrip", "geo": {"__type": "GeoPoint", "latitude": 0.431231, "longitude": 36.729133}}, {"latitude": -3.072405, "longitude": 39.215665, "name": "Sala Gate Airport", "geo": {"__type": "GeoPoint", "latitude": -3.072405, "longitude": 39.215665}}, {"latitude": 2.314229, "longitude": 36.88698, "name": "Seder Airport", "geo": {"__type": "GeoPoint", "latitude": 2.314229, "longitude": 36.88698}}, {"latitude": 2.544761, "longitude": 37.944126, "name": "Segel Airprot", "geo": {"__type": "GeoPoint", "latitude": 2.544761, "longitude": 37.944126}}, {"latitude": 0.658176, "longitude": 37.700377, "name": "Shaba Lodge Airport", "geo": {"__type": "GeoPoint", "latitude": 0.658176, "longitude": 37.700377}}, {"latitude": -2.669606, "longitude": 38.367137, "name": "Sheldrick Trust Strip", "geo": {"__type": "GeoPoint", "latitude": -2.669606, "longitude": 38.367137}}, {"latitude": 1.58209, "longitude": 35.471191, "name": "Sigor Airport", "geo": {"__type": "GeoPoint", "latitude": 1.58209, "longitude": 35.471191}}, {"latitude": -0.721299, "longitude": 36.28709, "name": "Sirocco Airstrip", "geo": {"__type": "GeoPoint", "latitude": -0.721299, "longitude": 36.28709}}, {"latitude": 0.418494, "longitude": 36.738667, "name": "Sosian Ranch Airstrip", "geo": {"__type": "GeoPoint", "latitude": 0.418494, "longitude": 36.738667}}, {"latitude": 2.172091, "longitude": 36.906929, "name": "South Horr Airport", "geo": {"__type": "GeoPoint", "latitude": 2.172091, "longitude": 36.906929}}, {"latitude": -0.273941, "longitude": 35.767293, "name": "St. Andrews School Airstrip", "geo": {"__type": "GeoPoint", "latitude": -0.273941, "longitude": 35.767293}}, {"latitude": 1.077515, "longitude": 37.092131, "name": "Sware Airport", "geo": {"__type": "GeoPoint", "latitude": 1.077515, "longitude": 37.092131}}, {"latitude": -0.017443, "longitude": 35.351428, "name": "Tinderet Teas Estate Airstrip", "geo": {"__type": "GeoPoint", "latitude": -0.017443, "longitude": 35.351428}}, {"latitude": -2.683608, "longitude": 37.178328, "name": "Tortilis Camp Airstrip", "geo": {"__type": "GeoPoint", "latitude": -2.683608, "longitude": 37.178328}}, {"latitude": -2.638919, "longitude": 38.364736, "name": "Tsavo Safari Camp Airstrip", "geo": {"__type": "GeoPoint", "latitude": -2.638919, "longitude": 38.364736}}, {"latitude": 2.141479, "longitude": 36.759077, "name": "Tum Airport", "geo": {"__type": "GeoPoint", "latitude": 2.141479, "longitude": 36.759077}}, {"latitude": -3.245484, "longitude": 38.181924, "name": "Wanjala Mine Airstrip", "geo": {"__type": "GeoPoint", "latitude": -3.245484, "longitude": 38.181924}}, {"latitude": -1.363068, "longitude": 35.189882, "name": "Weavers Airstrip", "geo": {"__type": "GeoPoint", "latitude": -1.363068, "longitude": 35.189882}}, {"latitude": -0.957591, "longitude": 34.306287, "name": "MacAlder Airport", "geo": {"__type": "GeoPoint", "latitude": -0.957591, "longitude": 34.306287}}, {"latitude": -0.51839, "longitude": 35.071665, "name": "Ngoinio Estate Airport", "geo": {"__type": "GeoPoint", "latitude": -0.51839, "longitude": 35.071665}}, {"latitude": 0.61196, "longitude": 36.800095, "name": "Loisaba Airstrop", "geo": {"__type": "GeoPoint", "latitude": 0.61196, "longitude": 36.800095}}, {"latitude": -1.324213, "longitude": 35.246106, "name": "Olare Orok Airfield", "geo": {"__type": "GeoPoint", "latitude": -1.324213, "longitude": 35.246106}}, {"latitude": -2.446286, "longitude": 40.754641, "name": "Bahari East Airstrip", "geo": {"__type": "GeoPoint", "latitude": -2.446286, "longitude": 40.754641}}, {"latitude": -2.447421, "longitude": 40.740016, "name": "Matangeni East Airstrip", "geo": {"__type": "GeoPoint", "latitude": -2.447421, "longitude": 40.740016}}, {"latitude": -2.37964, "longitude": 40.44099, "name": "Witu Airstrip", "geo": {"__type": "GeoPoint", "latitude": -2.37964, "longitude": 40.44099}}, {"latitude": 2.812043, "longitude": 40.932484, "name": "(Old) El Wak Airport", "geo": {"__type": "GeoPoint", "latitude": 2.812043, "longitude": 40.932484}}, {"latitude": 1.578387, "longitude": 37.810799, "name": "Laisamis Airport", "geo": {"__type": "GeoPoint", "latitude": 1.578387, "longitude": 37.810799}}, {"latitude": 1.966667, "longitude": 36.016668, "name": "Lokori Airport", "geo": {"__type": "GeoPoint", "latitude": 1.966667, "longitude": 36.016668}}, {"latitude": -0.623426, "longitude": 35.065867, "name": "Arroket Airport", "geo": {"__type": "GeoPoint", "latitude": -0.623426, "longitude": 35.065867}}, {"latitude": 3.646972, "longitude": 37.350861, "name": "Balesa Airport", "geo": {"__type": "GeoPoint", "latitude": 3.646972, "longitude": 37.350861}}, {"latitude": -1.434722, "longitude": 35.193249, "name": "Fig Tree  Airport", "geo": {"__type": "GeoPoint", "latitude": -1.434722, "longitude": 35.193249}}, {"latitude": -0.467954, "longitude": 36.191218, "name": "Head Office Delamere Estates Airport", "geo": {"__type": "GeoPoint", "latitude": -0.467954, "longitude": 36.191218}}, {"latitude": -1.135916, "longitude": 34.83411, "name": "Itona Ranch Airport", "geo": {"__type": "GeoPoint", "latitude": -1.135916, "longitude": 34.83411}}, {"latitude": -0.802967011928558, "longitude": 36.090610504150305, "name": "Karimbuni Airport", "geo": {"__type": "GeoPoint", "latitude": -0.802967011928558, "longitude": 36.090610504150305}}, {"latitude": 1.26666700839996, "longitude": 35.0333290100097, "name": "Masai Mara Airport", "geo": {"__type": "GeoPoint", "latitude": 1.26666700839996, "longitude": 35.0333290100097}}, {"latitude": 0.0472779981791973, "longitude": 37.4341926574707, "name": "Kisima Farm Airport", "geo": {"__type": "GeoPoint", "latitude": 0.0472779981791973, "longitude": 37.4341926574707}}, {"latitude": 0.013944000005722, "longitude": 36.8008346557617, "name": "Kamok Airport", "geo": {"__type": "GeoPoint", "latitude": 0.013944000005722, "longitude": 36.8008346557617}}, {"latitude": -3.083333, "longitude": 39.416668, "name": "Kulalu Ranch Airport", "geo": {"__type": "GeoPoint", "latitude": -3.083333, "longitude": 39.416668}}, {"latitude": -1.29999995231628, "longitude": 36.9500007629394, "name": "Lubarra Airport", "geo": {"__type": "GeoPoint", "latitude": -1.29999995231628, "longitude": 36.9500007629394}}, {"latitude": 0.125322997570037, "longitude": 40.2899856567382, "name": "Hagadera Airport", "geo": {"__type": "GeoPoint", "latitude": 0.125322997570037, "longitude": 40.2899856567382}}, {"latitude": 0.031057, "longitude": 35.988683, "name": "Lomolo Airport", "geo": {"__type": "GeoPoint", "latitude": 0.031057, "longitude": 35.988683}}, {"latitude": 2.345275, "longitude": 35.882778, "name": "Loporot Airport", "geo": {"__type": "GeoPoint", "latitude": 2.345275, "longitude": 35.882778}}, {"latitude": 3.033333, "longitude": 36.049999, "name": "Lothagah Airport", "geo": {"__type": "GeoPoint", "latitude": 3.033333, "longitude": 36.049999}}, {"latitude": 1.98333299160003, "longitude": 36.0499992370605, "name": "Lotubae Airport", "geo": {"__type": "GeoPoint", "latitude": 1.98333299160003, "longitude": 36.0499992370605}}, {"latitude": -0.236028000712394, "longitude": 36.000804901123, "name": "Menengai Airport", "geo": {"__type": "GeoPoint", "latitude": -0.236028000712394, "longitude": 36.000804901123}}, {"latitude": -1.04239296913146, "longitude": 35.2499542236328, "name": "Nampaso Airport", "geo": {"__type": "GeoPoint", "latitude": -1.04239296913146, "longitude": 35.2499542236328}}, {"latitude": 2.0137779712677, "longitude": 38.634220123291, "name": "Ndovu Airport", "geo": {"__type": "GeoPoint", "latitude": 2.0137779712677, "longitude": 38.634220123291}}, {"latitude": -0.28600001335144, "longitude": 36.1508064270019, "name": "Lanet Prairies Airport", "geo": {"__type": "GeoPoint", "latitude": -0.28600001335144, "longitude": 36.1508064270019}}, {"latitude": -1.83594405651092, "longitude": 37.784194946289, "name": "Ngore Ngore Airport", "geo": {"__type": "GeoPoint", "latitude": -1.83594405651092, "longitude": 37.784194946289}}, {"latitude": -0.316978, "longitude": 35.922549, "name": "Njoro Airport", "geo": {"__type": "GeoPoint", "latitude": -0.316978, "longitude": 35.922549}}, {"latitude": -1.01666700839996, "longitude": 35.8333320617675, "name": "Nkreta Airport", "geo": {"__type": "GeoPoint", "latitude": -1.01666700839996, "longitude": 35.8333320617675}}, {"latitude": 0.013944000005722, "longitude": 36.8841667175293, "name": "Oleleren Airport", "geo": {"__type": "GeoPoint", "latitude": 0.013944000005722, "longitude": 36.8841667175293}}, {"latitude": -0.0527219995856285, "longitude": 37.734195709228494, "name": "Gaitu Airport", "geo": {"__type": "GeoPoint", "latitude": -0.0527219995856285, "longitude": 37.734195709228494}}, {"latitude": -3.51238894462585, "longitude": 38.2502212524414, "name": "Taita Hills Airport", "geo": {"__type": "GeoPoint", "latitude": -3.51238894462585, "longitude": 38.2502212524414}}, {"latitude": -3.41888904571533, "longitude": 37.6341667175293, "name": "Taveta Sisal Airport", "geo": {"__type": "GeoPoint", "latitude": -3.41888904571533, "longitude": 37.6341667175293}}, {"latitude": 1.895681, "longitude": 35.38826, "name": "Turkwel Gorge Airport", "geo": {"__type": "GeoPoint", "latitude": 1.895681, "longitude": 35.38826}}, {"latitude": -3.21936106681823, "longitude": 37.80072021484369, "name": "Ziwani Airport", "geo": {"__type": "GeoPoint", "latitude": -3.21936106681823, "longitude": 37.80072021484369}}, {"latitude": -2.36916708946228, "longitude": 39.6175842285156, "name": "Didima Bule Airport", "geo": {"__type": "GeoPoint", "latitude": -2.36916708946228, "longitude": 39.6175842285156}}, {"latitude": 2.55250000953674, "longitude": 39.667583465576094, "name": "Komofodo Galana Ranch Airport", "geo": {"__type": "GeoPoint", "latitude": 2.55250000953674, "longitude": 39.667583465576094}}, {"latitude": 0.07766, "longitude": 37.34969, "name": "Embori Farm Airport", "geo": {"__type": "GeoPoint", "latitude": 0.07766, "longitude": 37.34969}}, {"latitude": -2.569034, "longitude": 40.322601, "name": "Shekiko Airport", "geo": {"__type": "GeoPoint", "latitude": -2.569034, "longitude": 40.322601}}, {"latitude": -1.083519, "longitude": 35.18565, "name": "Ngerende Airport", "geo": {"__type": "GeoPoint", "latitude": -1.083519, "longitude": 35.18565}}, {"latitude": -0.136000007390975, "longitude": 36.0174713134765, "name": "Barina Airport", "geo": {"__type": "GeoPoint", "latitude": -0.136000007390975, "longitude": 36.0174713134765}}, {"latitude": 0.713889002799987, "longitude": 36.867500305175696, "name": "Soy-Chemoset Airport", "geo": {"__type": "GeoPoint", "latitude": 0.713889002799987, "longitude": 36.867500305175696}}, {"latitude": 0.330583006143569, "longitude": 36.6508331298828, "name": "Ngorare Ranch Airport", "geo": {"__type": "GeoPoint", "latitude": 0.330583006143569, "longitude": 36.6508331298828}}, {"latitude": -0.602639019489288, "longitude": 36.36747360229489, "name": "Ilkek Airport", "geo": {"__type": "GeoPoint", "latitude": -0.602639019489288, "longitude": 36.36747360229489}}, {"latitude": 3.01999998092651, "longitude": 37.448333740234304, "name": "Kalacha South Airport", "geo": {"__type": "GeoPoint", "latitude": 3.01999998092651, "longitude": 37.448333740234304}}, {"latitude": -1.13333296775817, "longitude": 35.3333320617675, "name": "Masnami Airport", "geo": {"__type": "GeoPoint", "latitude": -1.13333296775817, "longitude": 35.3333320617675}}, {"latitude": 0.182172998785972, "longitude": 36.9118423461914, "name": "Segera Ranch Airport", "geo": {"__type": "GeoPoint", "latitude": 0.182172998785972, "longitude": 36.9118423461914}}, {"latitude": -3.13577795028686, "longitude": 39.3008880615234, "name": "Lali Galana Airport", "geo": {"__type": "GeoPoint", "latitude": -3.13577795028686, "longitude": 39.3008880615234}}, {"latitude": -1.079585, "longitude": 34.87741, "name": "Kilgoris Airport", "geo": {"__type": "GeoPoint", "latitude": -1.079585, "longitude": 34.87741}}, {"latitude": -0.852639019489288, "longitude": 36.2674713134765, "name": "Oserian Naivasha Airport", "geo": {"__type": "GeoPoint", "latitude": -0.852639019489288, "longitude": 36.2674713134765}}, {"latitude": 0.316666990518569, "longitude": 38.2000007629394, "name": "Kinna Airport", "geo": {"__type": "GeoPoint", "latitude": 0.316666990518569, "longitude": 38.2000007629394}}, {"latitude": -0.66966700553894, "longitude": 36.3102798461914, "name": "Green Park Airport", "geo": {"__type": "GeoPoint", "latitude": -0.66966700553894, "longitude": 36.3102798461914}}, {"latitude": -1.14542, "longitude": 35.124922, "name": "Mara North Conservancy Airstrip", "geo": {"__type": "GeoPoint", "latitude": -1.14542, "longitude": 35.124922}}, {"latitude": -1.49522697925567, "longitude": 35.4121170043945, "name": "Cottar's Camp Airport", "geo": {"__type": "GeoPoint", "latitude": -1.49522697925567, "longitude": 35.4121170043945}}, {"latitude": 0.933333, "longitude": 35.166668, "name": "Maji Mazuri Airport", "geo": {"__type": "GeoPoint", "latitude": 0.933333, "longitude": 35.166668}}, {"latitude": -3.6333329677581694, "longitude": 39.849998474121, "name": "Kilifi Plantation Farm Airport", "geo": {"__type": "GeoPoint", "latitude": -3.6333329677581694, "longitude": 39.849998474121}}, {"latitude": -0.109682999551296, "longitude": 37.7901000976562, "name": "Mitunguu Airport", "geo": {"__type": "GeoPoint", "latitude": -0.109682999551296, "longitude": 37.7901000976562}}, {"latitude": -2.228892, "longitude": 40.845313, "name": "Mkowe Airport", "geo": {"__type": "GeoPoint", "latitude": -2.228892, "longitude": 40.845313}}, {"latitude": -1.27156, "longitude": 34.955513, "name": "Angama Airport", "geo": {"__type": "GeoPoint", "latitude": -1.27156, "longitude": 34.955513}}, {"latitude": -1.29913794994354, "longitude": 35.0638771057128, "name": "Musiara Airstrip", "geo": {"__type": "GeoPoint", "latitude": -1.29913794994354, "longitude": 35.0638771057128}}, {"latitude": -2.57938888889, "longitude": 36.9121666667, "name": "Namanga Airport", "geo": {"__type": "GeoPoint", "latitude": -2.57938888889, "longitude": 36.9121666667}}, {"latitude": 3.316666, "longitude": 37.066666, "name": "Beverley Airport", "geo": {"__type": "GeoPoint", "latitude": 3.316666, "longitude": 37.066666}}, {"latitude": -0.245167002081871, "longitude": 36.88488769531249, "name": "Solio Ranch Airport", "geo": {"__type": "GeoPoint", "latitude": -0.245167002081871, "longitude": 36.88488769531249}}, {"latitude": 0.277594000101089, "longitude": 36.533332824707, "name": "Rumuruti Airport", "geo": {"__type": "GeoPoint", "latitude": 0.277594000101089, "longitude": 36.533332824707}}, {"latitude": 4.333976, "longitude": 36.906768, "name": "Sabarei Airport", "geo": {"__type": "GeoPoint", "latitude": 4.333976, "longitude": 36.906768}}, {"latitude": 1.483333, "longitude": 35.466667, "name": "Sigor Airport", "geo": {"__type": "GeoPoint", "latitude": 1.483333, "longitude": 35.466667}}, {"latitude": 0.263944000005722, "longitude": 36.9508628845214, "name": "Oljogi Ranch Airport", "geo": {"__type": "GeoPoint", "latitude": 0.263944000005722, "longitude": 36.9508628845214}}, {"latitude": 4.53025007247924, "longitude": 35.9175262451171, "name": "Todenyang Airport", "geo": {"__type": "GeoPoint", "latitude": 4.53025007247924, "longitude": 35.9175262451171}}, {"latitude": -3.36272192001342, "longitude": 38.605167388916, "name": "Voi Park Airport", "geo": {"__type": "GeoPoint", "latitude": -3.36272192001342, "longitude": 38.605167388916}}, {"latitude": 0.977778017520904, "longitude": 37.3188819885253, "name": "Wamba Airport", "geo": {"__type": "GeoPoint", "latitude": 0.977778017520904, "longitude": 37.3188819885253}}, {"latitude": -1.408586, "longitude": 35.110689, "name": "Olkiombo Airport", "geo": {"__type": "GeoPoint", "latitude": -1.408586, "longitude": 35.110689}}, {"latitude": 0.583333015441894, "longitude": 36.4333343505859, "name": "Laikipia Ranch Airport", "geo": {"__type": "GeoPoint", "latitude": 0.583333015441894, "longitude": 36.4333343505859}}, {"latitude": -4.52864, "longitude": 39.152237, "name": "Lunga-Lunga Airport", "geo": {"__type": "GeoPoint", "latitude": -4.52864, "longitude": 39.152237}}, {"latitude": 1.09945094585418, "longitude": 36.6950950622558, "name": "Maralal Airport", "geo": {"__type": "GeoPoint", "latitude": 1.09945094585418, "longitude": 36.6950950622558}}, {"latitude": 3.716667, "longitude": 34.866669, "name": "Kakuma Airport", "geo": {"__type": "GeoPoint", "latitude": 3.716667, "longitude": 34.866669}}, {"latitude": -3.39476490020751, "longitude": 37.6977577209472, "name": "Taveta Airport", "geo": {"__type": "GeoPoint", "latitude": -3.39476490020751, "longitude": 37.6977577209472}},