{
"type": "FeatureCollection",
"name": "schools",
"crs": { "type": "name", "properties": { "name": "urn:ogc:def:crs:OGC:1.3:CRS84" } },
"features": [
{ "type": "Feature", "properties": { "osm_id": "30092225", "addrcity": "", "name": "Kinderworld Academy", "amenity": "school", "operatorty": "", "addrfull": "", "source": "", "building": "", "capacitype": "", "geometry": "POINT (36.8235624 -1.3142125)", "latitude": -1.3142125, "longitude": 36.8235624 }, "geometry": { "type": "Point", "coordinates": [ 36.8235624, -1.3142125 ] } },
{ "type": "Feature", "properties": { "osm_id": "30092226", "addrcity": "", "name": "Kenya Water Institute", "amenity": "college", "operatorty": "", "addrfull": "", "source": "", "building": "", "capacitype": "", "geometry": "POINT (36.8243021 -1.3152725)", "latitude": -1.3152725, "longitude": 36.8243021 }, "geometry": { "type": "Point", "coordinates": [ 36.8243021, -1.3152725 ] } },
{ "type": "Feature", "properties": { "osm_id": "30092294", "addrcity": "", "name": "Nairobi Academy Secondary", "amenity": "school", "operatorty": "", "addrfull": "", "source": "", "building": "", "capacitype": "", "geometry": "POINT (36.7532749 -1.3401766)", "latitude": -1.3401766, "longitude": 36.7532749 }, "geometry": { "type": "Point", "coordinates": [ 36.7532749, -1.3401766 ] } },
{ "type": "Feature", "properties": { "osm_id": "30312225", "addrcity": "", "name": "Consolata School", "amenity": "school", "operatorty": "", "addrfull": "", "source": "", "building": "", "capacitype": "", "geometry": "POINT (36.8040596 -1.2674856)", "latitude": -1.2674856, "longitude": 36.8040596 }, "geometry": { "type": "Point", "coordinates": [ 36.8040596, -1.2674856 ] } },
{ "type": "Feature", "properties": { "osm_id": "30402763", "addrcity": "Nairobi", "name": "Aga Khan Nursery", "amenity": "school", "operatorty": "", "addrfull": "", "source": "", "building": "", "capacitype": "", "geometry": "POINT (36.8149215 -1.2721676)", "latitude": -1.2721676, "longitude": 36.8149215 }, "geometry": { "type": "Point", "coordinates": [ 36.8149215, -1.2721676 ] } },
{ "type": "Feature", "properties": { "osm_id": "30406053", "addrcity": "", "name": "State House Girls High School", "amenity": "school", "operatorty": "", "addrfull": "", "source": "", "building": "", "capacitype": "", "geometry": "POINT (36.8103358 -1.2762364)", "latitude": -1.2762364, "longitude": 36.8103358 }, "geometry": { "type": "Point", "coordinates": [ 36.8103358, -1.2762364 ] } },
{ "type": "Feature", "properties": { "osm_id": "294843078", "addrcity": "", "name": "Rose of Sharon Academy", "amenity": "school", "operatorty": "", "addrfull": "", "source": "", "building": "", "capacitype": "", "geometry": "POINT (36.7926652 -1.3015075)", "latitude": -1.3015075, "longitude": 36.7926652 }, "geometry": { "type": "Point", "coordinates": [ 36.7926652, -1.3015075 ] } },
{ "type": "Feature", "properties": { "osm_id": "295847902", "addrcity": "Nairobi", "name": "Pangani Girls Secondary School", "amenity": "school", "operatorty": "", "addrfull": "", "source": "", "building": "", "capacitype": "", "geometry": "POINT (36.8382453 -1.2707684)", "latitude": -1.2707684, "longitude": 36.8382453 }, "geometry": { "type": "Point", "coordinates": [ 36.8382453, -1.2707684 ] } },
{ "type": "Feature", "properties": { "osm_id": "295848487", "addrcity": "Nairobi", "name": "Pangani Girls Secondary School", "amenity": "school", "operatorty": "", "addrfull": "", "source": "", "building": "", "capacitype": "", "geometry": "POINT (36.837387 -1.2689406)", "latitude": -1.2689406, "longitude": 36.837387 }, "geometry": { "type": "Point", "coordinates": [ 36.837387, -1.2689406 ] } },
{ "type": "Feature", "properties": { "osm_id": "344967980", "addrcity": "", "name": "", "amenity": "school", "operatorty": "", "addrfull": "", "source": "", "building": "", "capacitype": "", "geometry": "POINT (39.5703091 -4.2959867)", "latitude": -4.2959867, "longitude": 39.5703091 }, "geometry": { "type": "Point", "coordinates": [ 39.5703091, -4.2959867 ] } },
{ "type": "Feature", "properties": { "osm_id": "344968611", "addrcity": "", "name": "Ng'ombeni Primary", "amenity": "school", "operatorty": "", "addrfull": "", "source": "", "building": "", "capacitype": "", "geometry": "POINT (39.6301324 -4.1278555)", "latitude": -4.1278555, "longitude": 39.6301324 }, "geometry": { "type": "Point", "coordinates": [ 39.6301324, -4.1278555 ] } },
{ "type": "Feature", "properties": { "osm_id": "408800023", "addrcity": "", "name": "Aga Khan Primary School", "amenity": "school", "operatorty": "", "addrfull": "", "source": "", "building": "", "capacitype": "", "geometry": "POINT (34.7555602 -0.0982291)", "latitude": -0.0982291, "longitude": 34.7555602 }, "geometry": { "type": "Point", "coordinates": [ 34.7555602, -0.0982291 ] } },
{ "type": "Feature", "properties": { "osm_id": "478551902", "addrcity": "", "name": "Shadrack Kimalel Primary School", "amenity": "school", "operatorty": "government", "addrfull": "", "source": "", "building": "", "capacitype": "", "geometry": "POINT (36.7988296 -1.3104681)", "latitude": -1.3104681, "longitude": 36.7988296 }, "geometry": { "type": "Point", "coordinates": [ 36.7988296, -1.3104681 ] } },
{ "type": "Feature", "properties": { "osm_id": "480762579", "addrcity": "", "name": "Daystar University (Nairobi campus)", "amenity": "university", "operatorty": "", "addrfull": "", "source": "", "building": "", "capacitype": "", "geometry": "POINT (36.8022159 -1.2973428)", "latitude": -1.2973428, "longitude": 36.8022159 }, "geometry": { "type": "Point", "coordinates": [ 36.8022159, -1.2973428 ] } },
{ "type": "Feature", "properties": { "osm_id": "494771899", "addrcity": "", "name": "Oshwal", "amenity": "school", "operatorty": "", "addrfull": "", "source": "", "building": "", "capacitype": "", "geometry": "POINT (36.8092145 -1.26038)", "latitude": -1.26038, "longitude": 36.8092145 }, "geometry": { "type": "Point", "coordinates": [ 36.8092145, -1.26038 ] } },
{ "type": "Feature", "properties": { "osm_id": "521103109", "addrcity": "", "name": "Jonathan Gloag Academy", "amenity": "school", "operatorty": "", "addrfull": "", "source": "", "building": "", "capacitype": "", "geometry": "POINT (36.812998 -1.314269)", "latitude": -1.314269, "longitude": 36.812998 }, "geometry": { "type": "Point", "coordinates": [ 36.812998, -1.314269 ] } },
{ "type": "Feature", "properties": { "osm_id": "550105831", "addrcity": "", "name": "Busara Primary School", "amenity": "school", "operatorty": "", "addrfull": "", "source": "", "building": "", "capacitype": "", "geometry": "POINT (36.8956499 -1.2774597)", "latitude": -1.2774597, "longitude": 36.8956499 }, "geometry": { "type": "Point", "coordinates": [ 36.8956499, -1.2774597 ] } },
{ "type": "Feature", "properties": { "osm_id": "560737727", "addrcity": "", "name": "karurumo methodist school", "amenity": "school", "operatorty": "", "addrfull": "", "source": "", "building": "", "capacitype": "", "geometry": "POINT (37.655146 -0.4748891)", "latitude": -0.4748891, "longitude": 37.655146 }, "geometry": { "type": "Point", "coordinates": [ 37.655146, -0.4748891 ] } },
{ "type": "Feature", "properties": { "osm_id": "560737728", "addrcity": "", "name": "youth polytechnic", "amenity": "school", "operatorty": "", "addrfull": "", "source": "", "building": "", "capacitype": "", "geometry": "POINT (37.6535925 -0.4700656)", "latitude": -0.4700656, "longitude": 37.6535925 }, "geometry": { "type": "Point", "coordinates": [ 37.6535925, -0.4700656 ] } },
{ "type": "Feature", "properties": { "osm_id": "583157837", "addrcity": "", "name": "St Christophers", "amenity": "school", "operatorty": "", "addrfull": "", "source": "", "building": "", "capacitype": "", "geometry": "POINT (36.7145777 -1.3181003)", "latitude": -1.3181003, "longitude": 36.7145777 }, "geometry": { "type": "Point", "coordinates": [ 36.7145777, -1.3181003 ] } },
{ "type": "Feature", "properties": { "osm_id": "588006388", "addrcity": "", "name": "Limuru Girls School", "amenity": "school", "operatorty": "", "addrfull": "", "source": "", "building": "", "capacitype": "", "geometry": "POINT (36.6838924 -1.1107092)", "latitude": -1.1107092, "longitude": 36.6838924 }, "geometry": { "type": "Point", "coordinates": [ 36.6838924, -1.1107092 ] } },
{ "type": "Feature", "properties": { "osm_id": "612004414", "addrcity": "", "name": "Guum CBO Primary School", "amenity": "school", "operatorty": "cbo", "addrfull": "", "source": "", "building": "", "capacitype": "", "geometry": "POINT (36.7821671 -1.3158823)", "latitude": -1.3158823, "longitude": 36.7821671 }, "geometry": { "type": "Point", "coordinates": [ 36.7821671, -1.3158823 ] } },
{ "type": "Feature", "properties": { "osm_id": "612007086", "addrcity": "", "name": "Bridge 0f Hope Educational Centre", "amenity": "school", "operatorty": "private", "addrfull": "", "source": "", "building": "", "capacitype": "", "geometry": "POINT (36.793287 -1.313207)", "latitude": -1.313207, "longitude": 36.793287 }, "geometry": { "type": "Point", "coordinates": [ 36.793287, -1.313207 ] } },
{ "type": "Feature", "properties": { "osm_id": "612007152", "addrcity": "", "name": "Olympic Primary School", "amenity": "school", "operatorty": "government", "addrfull": "", "source": "", "building": "", "capacitype": "", "geometry": "POINT (36.7805594 -1.3132322)", "latitude": -1.3132322, "longitude": 36.7805594 }, "geometry": { "type": "Point", "coordinates": [ 36.7805594, -1.3132322 ] } },
{ "type": "Feature", "properties": { "osm_id": "612007263", "addrcity": "", "name": "Kibera Academy", "amenity": "school", "operatorty": "", "addrfull": "", "source": "", "building": "", "capacitype": "", "geometry": "POINT (36.7882173 -1.311055)", "latitude": -1.311055, "longitude": 36.7882173 }, "geometry": { "type": "Point", "coordinates": [ 36.7882173, -1.311055 ] } },
{ "type": "Feature", "properties": { "osm_id": "612007264", "addrcity": "", "name": "Kambi Muru Tenderlets CBO School", "amenity": "school", "operatorty": "religious", "addrfull": "", "source": "", "building": "", "capacitype": "", "geometry": "POINT (36.7942567 -1.3146991)", "latitude": -1.3146991, "longitude": 36.7942567 }, "geometry": { "type": "Point", "coordinates": [ 36.7942567, -1.3146991 ] } },
{ "type": "Feature", "properties": { "osm_id": "612007279", "addrcity": "", "name": "Mashimoni Squatters Primary School", "amenity": "school", "operatorty": "ngo", "addrfull": "", "source": "map_kibera_trust", "building": "", "capacitype": "", "geometry": "POINT (36.790862 -1.3123932)", "latitude": -1.3123932, "longitude": 36.790862 }, "geometry": { "type": "Point", "coordinates": [ 36.790862, -1.3123932 ] } },
{ "type": "Feature", "properties": { "osm_id": "612007401", "addrcity": "", "name": "Lindi Ushirika Nursery School", "amenity": "school", "operatorty": "ngo", "addrfull": "", "source": "", "building": "", "capacitype": "", "geometry": "POINT (36.7902852 -1.3150596)", "latitude": -1.3150596, "longitude": 36.7902852 }, "geometry": { "type": "Point", "coordinates": [ 36.7902852, -1.3150596 ] } },
{ "type": "Feature", "properties": { "osm_id": "612007406", "addrcity": "", "name": "Saviour Kings Academy", "amenity": "school", "operatorty": "ngo", "addrfull": "", "source": "", "building": "", "capacitype": "", "geometry": "POINT (36.7940253 -1.3155859)", "latitude": -1.3155859, "longitude": 36.7940253 }, "geometry": { "type": "Point", "coordinates": [ 36.7940253, -1.3155859 ] } },
{ "type": "Feature", "properties": { "osm_id": "612007412", "addrcity": "", "name": "Rudolf High School (Closed)", "amenity": "school", "operatorty": "private", "addrfull": "", "source": "", "building": "", "capacitype": "", "geometry": "POINT (36.7950352 -1.3146274)", "latitude": -1.3146274, "longitude": 36.7950352 }, "geometry": { "type": "Point", "coordinates": [ 36.7950352, -1.3146274 ] } },
{ "type": "Feature", "properties": { "osm_id": "612007413", "addrcity": "", "name": "Lindi Ushirika Primary", "amenity": "school", "operatorty": "cbo", "addrfull": "", "source": "", "building": "", "capacitype": "", "geometry": "POINT (36.794168 -1.3138256)", "latitude": -1.3138256, "longitude": 36.794168 }, "geometry": { "type": "Point", "coordinates": [ 36.794168, -1.3138256 ] } },
{ "type": "Feature", "properties": { "osm_id": "612007446", "addrcity": "", "name": "Makina Baptist Primary School", "amenity": "school", "operatorty": "cbo", "addrfull": "", "source": "", "building": "", "capacitype": "", "geometry": "POINT (36.7900295 -1.3084695)", "latitude": -1.3084695, "longitude": 36.7900295 }, "geometry": { "type": "Point", "coordinates": [ 36.7900295, -1.3084695 ] } },
{ "type": "Feature", "properties": { "osm_id": "612007447", "addrcity": "", "name": "Calvary Educational Centre", "amenity": "school", "operatorty": "religious", "addrfull": "", "source": "", "building": "", "capacitype": "", "geometry": "POINT (36.7895003 -1.3084031)", "latitude": -1.3084031, "longitude": 36.7895003 }, "geometry": { "type": "Point", "coordinates": [ 36.7895003, -1.3084031 ] } },
{ "type": "Feature", "properties": { "osm_id": "612007489", "addrcity": "", "name": "Mzalendo High Technical Center", "amenity": "school", "operatorty": "private", "addrfull": "", "source": "", "building": "", "capacitype": "", "geometry": "POINT (36.7884157 -1.3111681)", "latitude": -1.3111681, "longitude": 36.7884157 }, "geometry": { "type": "Point", "coordinates": [ 36.7884157, -1.3111681 ] } },
{ "type": "Feature", "properties": { "osm_id": "612007505", "addrcity": "", "name": "St Monica Nursery School", "amenity": "school", "operatorty": "cbo", "addrfull": "", "source": "", "building": "", "capacitype": "", "geometry": "POINT (36.7785618 -1.3191359)", "latitude": -1.3191359, "longitude": 36.7785618 }, "geometry": { "type": "Point", "coordinates": [ 36.7785618, -1.3191359 ] } },
{ "type": "Feature", "properties": { "osm_id": "612007554", "addrcity": "", "name": "Palm Olive Academy", "amenity": "school", "operatorty": "cbo", "addrfull": "", "source": "", "building": "", "capacitype": "", "geometry": "POINT (36.7794245 -1.313813)", "latitude": -1.313813, "longitude": 36.7794245 }, "geometry": { "type": "Point", "coordinates": [ 36.7794245, -1.313813 ] } },
{ "type": "Feature", "properties": { "osm_id": "612007576", "addrcity": "", "name": "Robter Nursery School", "amenity": "school", "operatorty": "private", "addrfull": "", "source": "Map Kibera Trust", "building": "", "capacitype": "", "geometry": "POINT (36.7801005 -1.3134749)", "latitude": -1.3134749, "longitude": 36.7801005 }, "geometry": { "type": "Point", "coordinates": [ 36.7801005, -1.3134749 ] } },
{ "type": "Feature", "properties": { "osm_id": "612007585", "addrcity": "", "name": "Ammsa Junior Academy", "amenity": "school", "operatorty": "private", "addrfull": "", "source": "Map Kibera Trust", "building": "", "capacitype": "", "geometry": "POINT (36.7773233 -1.3126169)", "latitude": -1.3126169, "longitude": 36.7773233 }, "geometry": { "type": "Point", "coordinates": [ 36.7773233, -1.3126169 ] } },
{ "type": "Feature", "properties": { "osm_id": "612007672", "addrcity": "", "name": "Laini Saba Primary School", "amenity": "school", "operatorty": "religious", "addrfull": "", "source": "", "building": "", "capacitype": "", "geometry": "POINT (36.794199 -1.3101007)", "latitude": -1.3101007, "longitude": 36.794199 }, "geometry": { "type": "Point", "coordinates": [ 36.794199, -1.3101007 ] } },
{ "type": "Feature", "properties": { "osm_id": "612007690", "addrcity": "", "name": "YMCA School", "amenity": "school", "operatorty": "ngo", "addrfull": "", "source": "", "building": "", "capacitype": "", "geometry": "POINT (36.7953065 -1.310952)", "latitude": -1.310952, "longitude": 36.7953065 }, "geometry": { "type": "Point", "coordinates": [ 36.7953065, -1.310952 ] } },
{ "type": "Feature", "properties": { "osm_id": "612007716", "addrcity": "", "name": "Jakes Academy", "amenity": "school", "operatorty": "private", "addrfull": "", "source": "", "building": "", "capacitype": "", "geometry": "POINT (36.7947541 -1.3098221)", "latitude": -1.3098221, "longitude": 36.7947541 }, "geometry": { "type": "Point", "coordinates": [ 36.7947541, -1.3098221 ] } },
{ "type": "Feature", "properties": { "osm_id": "612007816", "addrcity": "", "name": "Linda Baby Care", "amenity": "school", "operatorty": "cbo", "addrfull": "", "source": "", "building": "", "capacitype": "", "geometry": "POINT (36.7868672 -1.3141701)", "latitude": -1.3141701, "longitude": 36.7868672 }, "geometry": { "type": "Point", "coordinates": [ 36.7868672, -1.3141701 ] } },
{ "type": "Feature", "properties": { "osm_id": "612007820", "addrcity": "", "name": "Kisumu Ndogo Primary School", "amenity": "school", "operatorty": "cbo", "addrfull": "", "source": "", "building": "", "capacitype": "", "geometry": "POINT (36.7888624 -1.3137782)", "latitude": -1.3137782, "longitude": 36.7888624 }, "geometry": { "type": "Point", "coordinates": [ 36.7888624, -1.3137782 ] } },
{ "type": "Feature", "properties": { "osm_id": "612008370", "addrcity": "", "name": "St Christine", "amenity": "school", "operatorty": "cbo", "addrfull": "", "source": "", "building": "", "capacitype": "", "geometry": "POINT (36.7770397 -1.3172201)", "latitude": -1.3172201, "longitude": 36.7770397 }, "geometry": { "type": "Point", "coordinates": [ 36.7770397, -1.3172201 ] } },
{ "type": "Feature", "properties": { "osm_id": "612008379", "addrcity": "", "name": "Lindi Friends School", "amenity": "school", "operatorty": "religious", "addrfull": "", "source": "", "building": "", "capacitype": "", "geometry": "POINT (36.7909977 -1.3146802)", "latitude": -1.3146802, "longitude": 36.7909977 }, "geometry": { "type": "Point", "coordinates": [ 36.7909977, -1.3146802 ] } },
{ "type": "Feature", "properties": { "osm_id": "612008500", "addrcity": "", "name": "Tenderlings School", "amenity": "school", "operatorty": "private", "addrfull": "", "source": "", "building": "", "capacitype": "", "geometry": "POINT (36.7762577 -1.3085809)", "latitude": -1.3085809, "longitude": 36.7762577 }, "geometry": { "type": "Point", "coordinates": [ 36.7762577, -1.3085809 ] } },
{ "type": "Feature", "properties": { "osm_id": "612008568", "addrcity": "", "name": "St. Bakhita Pre-School-Soweto", "amenity": "school", "operatorty": "religious", "addrfull": "", "source": "", "building": "", "capacitype": "", "geometry": "POINT (36.7978307 -1.3132458)", "latitude": -1.3132458, "longitude": 36.7978307 }, "geometry": { "type": "Point", "coordinates": [ 36.7978307, -1.3132458 ] } },
{ "type": "Feature", "properties": { "osm_id": "612008576", "addrcity": "", "name": "Victory Hope Community Centre", "amenity": "school", "operatorty": "cbo", "addrfull": "", "source": "", "building": "", "capacitype": "", "geometry": "POINT (36.8023282 -1.3158218)", "latitude": -1.3158218, "longitude": 36.8023282 }, "geometry": { "type": "Point", "coordinates": [ 36.8023282, -1.3158218 ] } },
{ "type": "Feature", "properties": { "osm_id": "612008715", "addrcity": "", "name": "Charity Nursery School", "amenity": "school", "operatorty": "private", "addrfull": "", "source": "Map Kibera Trust", "building": "", "capacitype": "", "geometry": "POINT (36.7846634 -1.3114235)", "latitude": -1.3114235, "longitude": 36.7846634 }, "geometry": { "type": "Point", "coordinates": [ 36.7846634, -1.3114235 ] } },
{ "type": "Feature", "properties": { "osm_id": "612008764", "addrcity": "", "name": "Brothers Missionery Primary School", "amenity": "school", "operatorty": "religious", "addrfull": "", "source": "Map Kibera Trust", "building": "", "capacitype": "", "geometry": "POINT (36.7728971 -1.3104398)", "latitude": -1.3104398, "longitude": 36.7728971 }, "geometry": { "type": "Point", "coordinates": [ 36.7728971, -1.3104398 ] } },
{ "type": "Feature", "properties": { "osm_id": "612008786", "addrcity": "", "name": "Zelyn Pre-School Academy", "amenity": "school", "operatorty": "cbo", "addrfull": "", "source": "", "building": "", "capacitype": "", "geometry": "POINT (36.7984839 -1.3172255)", "latitude": -1.3172255, "longitude": 36.7984839 }, "geometry": { "type": "Point", "coordinates": [ 36.7984839, -1.3172255 ] } },
{ "type": "Feature", "properties": { "osm_id": "612008903", "addrcity": "", "name": "Ujamaa Community Primary School", "amenity": "school", "operatorty": "ngo", "addrfull": "", "source": "", "building": "", "capacitype": "", "geometry": "POINT (36.7924852 -1.3163609)", "latitude": -1.3163609, "longitude": 36.7924852 }, "geometry": { "type": "Point", "coordinates": [ 36.7924852, -1.3163609 ] } },
{ "type": "Feature", "properties": { "osm_id": "612009018", "addrcity": "", "name": "Calvary Educational Centre", "amenity": "school", "operatorty": "religious", "addrfull": "", "source": "", "building": "", "capacitype": "", "geometry": "POINT (36.7895146 -1.3084288)", "latitude": -1.3084288, "longitude": 36.7895146 }, "geometry": { "type": "Point", "coordinates": [ 36.7895146, -1.3084288 ] } },
{ "type": "Feature", "properties": { "osm_id": "612009037", "addrcity": "", "name": "St. John Community School", "amenity": "school", "operatorty": "cbo", "addrfull": "", "source": "", "building": "", "capacitype": "", "geometry": "POINT (36.7961312 -1.3183716)", "latitude": -1.3183716, "longitude": 36.7961312 }, "geometry": { "type": "Point", "coordinates": [ 36.7961312, -1.3183716 ] } },
{ "type": "Feature", "properties": { "osm_id": "612009057", "addrcity": "", "name": "Soweto Baptist High School", "amenity": "school", "operatorty": "religious", "addrfull": "", "source": "", "building": "", "capacitype": "", "geometry": "POINT (36.8000285 -1.3167449)", "latitude": -1.3167449, "longitude": 36.8000285 }, "geometry": { "type": "Point", "coordinates": [ 36.8000285, -1.3167449 ] } },
{ "type": "Feature", "properties": { "osm_id": "612009188", "addrcity": "", "name": "Care Highway Little School", "amenity": "school", "operatorty": "cbo", "addrfull": "", "source": "", "building": "", "capacitype": "", "geometry": "POINT (36.7788314 -1.3151491)", "latitude": -1.3151491, "longitude": 36.7788314 }, "geometry": { "type": "Point", "coordinates": [ 36.7788314, -1.3151491 ] } },
{ "type": "Feature", "properties": { "osm_id": "612009191", "addrcity": "", "name": "Red Rose Children Center", "amenity": "school", "operatorty": "cbo", "addrfull": "", "source": "", "building": "", "capacitype": "", "geometry": "POINT (36.7772304 -1.3123809)", "latitude": -1.3123809, "longitude": 36.7772304 }, "geometry": { "type": "Point", "coordinates": [ 36.7772304, -1.3123809 ] } },
{ "type": "Feature", "properties": { "osm_id": "612009192", "addrcity": "", "name": "Berith Bible College", "amenity": "school", "operatorty": "religious", "addrfull": "", "source": "Map Kibera Trust", "building": "", "capacitype": "", "geometry": "POINT (36.777227 -1.3119792)", "latitude": -1.3119792, "longitude": 36.777227 }, "geometry": { "type": "Point", "coordinates": [ 36.777227, -1.3119792 ] } },
{ "type": "Feature", "properties": { "osm_id": "612011358", "addrcity": "", "name": "Kibera Glory Secondary School", "amenity": "school", "operatorty": "religious", "addrfull": "", "source": "", "building": "", "capacitype": "", "geometry": "POINT (36.7957903 -1.3118843)", "latitude": -1.3118843, "longitude": 36.7957903 }, "geometry": { "type": "Point", "coordinates": [ 36.7957903, -1.3118843 ] } },
{ "type": "Feature", "properties": { "osm_id": "612932123", "addrcity": "", "name": "Mathaithi Girls' School", "amenity": "school", "operatorty": "", "addrfull": "", "source": "", "building": "", "capacitype": "", "geometry": "POINT (37.1132766 -0.4801966)", "latitude": -0.4801966, "longitude": 37.1132766 }, "geometry": { "type": "Point", "coordinates": [ 37.1132766, -0.4801966 ] } },
{ "type": "Feature", "properties": { "osm_id": "612932125", "addrcity": "", "name": "", "amenity": "school", "operatorty": "", "addrfull": "", "source": "", "building": "", "capacitype": "", "geometry": "POINT (37.1007423 -0.4822236)", "latitude": -0.4822236, "longitude": 37.1007423 }, "geometry": { "type": "Point", "coordinates": [ 37.1007423, -0.4822236 ] } },
{ "type": "Feature", "properties": { "osm_id": "612932126", "addrcity": "", "name": "Gatimu Ngandu", "amenity": "school", "operatorty": "", "addrfull": "", "source": "", "building": "", "capacitype": "", "geometry": "POINT (37.0870538 -0.4804167)", "latitude": -0.4804167, "longitude": 37.0870538 }, "geometry": { "type": "Point", "coordinates": [ 37.0870538, -0.4804167 ] } },
{ "type": "Feature", "properties": { "osm_id": "612932129", "addrcity": "", "name": "Ngorano Girls' School", "amenity": "school", "operatorty": "", "addrfull": "", "source": "", "building": "", "capacitype": "", "geometry": "POINT (37.0469156 -0.4515962)", "latitude": -0.4515962, "longitude": 37.0469156 }, "geometry": { "type": "Point", "coordinates": [ 37.0469156, -0.4515962 ] } },
{ "type": "Feature", "properties": { "osm_id": "612932140", "addrcity": "", "name": "Bingwa", "amenity": "school", "operatorty": "", "addrfull": "", "source": "", "building": "", "capacitype": "", "geometry": "POINT (37.1265171 0.0355461)", "latitude": 0.0355461, "longitude": 37.1265171 }, "geometry": { "type": "Point", "coordinates": [ 37.1265171, 0.0355461 ] } },
{ "type": "Feature", "properties": { "osm_id": "612932141", "addrcity": "", "name": "CCM Angaine", "amenity": "school", "operatorty": "", "addrfull": "", "source": "", "building": "", "capacitype": "", "geometry": "POINT (37.1861192 0.0523126)", "latitude": 0.0523126, "longitude": 37.1861192 }, "geometry": { "type": "Point", "coordinates": [ 37.1861192, 0.0523126 ] } },
{ "type": "Feature", "properties": { "osm_id": "612947256", "addrcity": "", "name": "Mtwapa Elite Academy", "amenity": "school", "operatorty": "", "addrfull": "", "source": "", "building": "", "capacitype": "", "geometry": "POINT (39.7398327 -3.9603991)", "latitude": -3.9603991, "longitude": 39.7398327 }, "geometry": { "type": "Point", "coordinates": [ 39.7398327, -3.9603991 ] } },
{ "type": "Feature", "properties": { "osm_id": "612947306", "addrcity": "", "name": "Chumani Secondary School", "amenity": "school", "operatorty": "", "addrfull": "", "source": "", "building": "", "capacitype": "", "geometry": "POINT (39.8975476 -3.4699394)", "latitude": -3.4699394, "longitude": 39.8975476 }, "geometry": { "type": "Point", "coordinates": [ 39.8975476, -3.4699394 ] } },
{ "type": "Feature", "properties": { "osm_id": "612947312", "addrcity": "", "name": "Kingsway Junior School", "amenity": "school", "operatorty": "", "addrfull": "", "source": "", "building": "", "capacitype": "", "geometry": "POINT (40.0124214 -3.3019604)", "latitude": -3.3019604, "longitude": 40.0124214 }, "geometry": { "type": "Point", "coordinates": [ 40.0124214, -3.3019604 ] } },
{ "type": "Feature", "properties": { "osm_id": "612947315", "addrcity": "", "name": "Shalom Baptist School", "amenity": "school", "operatorty": "", "addrfull": "", "source": "", "building": "", "capacitype": "", "geometry": "POINT (40.0861866 -3.2462187)", "latitude": -3.2462187, "longitude": 40.0861866 }, "geometry": { "type": "Point", "coordinates": [ 40.0861866, -3.2462187 ] } },
{ "type": "Feature", "properties": { "osm_id": "612947321", "addrcity": "Kiganjo", "name": "Sacred Heart Girls' School", "amenity": "school", "operatorty": "", "addrfull": "", "source": "", "building": "", "capacitype": "", "geometry": "POINT (37.0054102 -0.3968411)", "latitude": -0.3968411, "longitude": 37.0054102 }, "geometry": { "type": "Point", "coordinates": [ 37.0054102, -0.3968411 ] } },
{ "type": "Feature", "properties": { "osm_id": "662794312", "addrcity": "", "name": "Chemichemi Ya Tumaini", "amenity": "school", "operatorty": "ngo", "addrfull": "", "source": "", "building": "", "capacitype": "", "geometry": "POINT (36.7926348 -1.3114729)", "latitude": -1.3114729, "longitude": 36.7926348 }, "geometry": { "type": "Point", "coordinates": [ 36.7926348, -1.3114729 ] } },
{ "type": "Feature", "properties": { "osm_id": "694360442", "addrcity": "Nairobi", "name": "Karen South School", "amenity": "school", "operatorty": "", "addrfull": "", "source": "", "building": "", "capacitype": "", "geometry": "POINT (36.7430768 -1.3437999)", "latitude": -1.3437999, "longitude": 36.7430768 }, "geometry": { "type": "Point", "coordinates": [ 36.7430768, -1.3437999 ] } },
{ "type": "Feature", "properties": { "osm_id": "694431111", "addrcity": "", "name": "Don Bosco Boys Town", "amenity": "school", "operatorty": "", "addrfull": "", "source": "", "building": "", "capacitype": "", "geometry": "POINT (36.7115405 -1.3262033)", "latitude": -1.3262033, "longitude": 36.7115405 }, "geometry": { "type": "Point", "coordinates": [ 36.7115405, -1.3262033 ] } },
{ "type": "Feature", "properties": { "osm_id": "695644706", "addrcity": "", "name": "Bunks and Biddles Montessori Kindergarten", "amenity": "kindergarten", "operatorty": "", "addrfull": "", "source": "", "building": "", "capacitype": "", "geometry": "POINT (36.7360622 -1.3349946)", "latitude": -1.3349946, "longitude": 36.7360622 }, "geometry": { "type": "Point", "coordinates": [ 36.7360622, -1.3349946 ] } },
{ "type": "Feature", "properties": { "osm_id": "695644715", "addrcity": "", "name": "Bunks Early Childhood Education College of Kenya", "amenity": "college", "operatorty": "", "addrfull": "", "source": "", "building": "", "capacitype": "", "geometry": "POINT (36.7363469 -1.3333789)", "latitude": -1.3333789, "longitude": 36.7363469 }, "geometry": { "type": "Point", "coordinates": [ 36.7363469, -1.3333789 ] } },
{ "type": "Feature", "properties": { "osm_id": "703087745", "addrcity": "", "name": "Garden of Hope Centre", "amenity": "school", "operatorty": "", "addrfull": "", "source": "", "building": "", "capacitype": "", "geometry": "POINT (36.6528796 -1.3705807)", "latitude": -1.3705807, "longitude": 36.6528796 }, "geometry": { "type": "Point", "coordinates": [ 36.6528796, -1.3705807 ] } },
{ "type": "Feature", "properties": { "osm_id": "711491752", "addrcity": "", "name": "Mang'u High School", "amenity": "school", "operatorty": "", "addrfull": "", "source": "", "building": "", "capacitype": "", "geometry": "POINT (37.0465363 -1.0741823)", "latitude": -1.0741823, "longitude": 37.0465363 }, "geometry": { "type": "Point", "coordinates": [ 37.0465363, -1.0741823 ] } },
{ "type": "Feature", "properties": { "osm_id": "711491773", "addrcity": "", "name": "Murang'a Teachers College", "amenity": "college", "operatorty": "", "addrfull": "", "source": "", "building": "", "capacitype": "", "geometry": "POINT (37.2120546 -0.9017812)", "latitude": -0.9017812, "longitude": 37.2120546 }, "geometry": { "type": "Point", "coordinates": [ 37.2120546, -0.9017812 ] } },
{ "type": "Feature", "properties": { "osm_id": "711491783", "addrcity": "", "name": "CMI - Christ Primary School", "amenity": "school", "operatorty": "", "addrfull": "", "source": "", "building": "", "capacitype": "", "geometry": "POINT (37.2775883 -0.7444532)", "latitude": -0.7444532, "longitude": 37.2775883 }, "geometry": { "type": "Point", "coordinates": [ 37.2775883, -0.7444532 ] } },
{ "type": "Feature", "properties": { "osm_id": "711491785", "addrcity": "", "name": "Kangocho Primary School", "amenity": "school", "operatorty": "", "addrfull": "", "source": "", "building": "", "capacitype": "", "geometry": "POINT (37.2086392 -0.6645786)", "latitude": -0.6645786, "longitude": 37.2086392 }, "geometry": { "type": "Point", "coordinates": [ 37.2086392, -0.6645786 ] } },
{ "type": "Feature", "properties": { "osm_id": "711491795", "addrcity": "Kirinyaga", "name": "Kibirigwi Girls Secondary School", "amenity": "school", "operatorty": "", "addrfull": "", "source": "", "building": "", "capacitype": "", "geometry": "POINT (37.181186 -0.5288983)", "latitude": -0.5288983, "longitude": 37.181186 }, "geometry": { "type": "Point", "coordinates": [ 37.181186, -0.5288983 ] } },
{ "type": "Feature", "properties": { "osm_id": "711491811", "addrcity": "Kiganjo", "name": "Sacred Heart Girls Secondary School", "amenity": "school", "operatorty": "", "addrfull": "", "source": "", "building": "", "capacitype": "", "geometry": "POINT (37.0058725 -0.3963154)", "latitude": -0.3963154, "longitude": 37.0058725 }, "geometry": { "type": "Point", "coordinates": [ 37.0058725, -0.3963154 ] } },
{ "type": "Feature", "properties": { "osm_id": "711491840", "addrcity": "", "name": "Nyeri junior & Senior School", "amenity": "school", "operatorty": "", "addrfull": "", "source": "", "building": "", "capacitype": "", "geometry": "POINT (37.0124875 -0.2846152)", "latitude": -0.2846152, "longitude": 37.0124875 }, "geometry": { "type": "Point", "coordinates": [ 37.0124875, -0.2846152 ] } },
{ "type": "Feature", "properties": { "osm_id": "711491846", "addrcity": "", "name": "Murera View Academy", "amenity": "school", "operatorty": "", "addrfull": "", "source": "", "building": "", "capacitype": "", "geometry": "POINT (37.0338929 -0.1340698)", "latitude": -0.1340698, "longitude": 37.0338929 }, "geometry": { "type": "Point", "coordinates": [ 37.0338929, -0.1340698 ] } },
{ "type": "Feature", "properties": { "osm_id": "712877069", "addrcity": "", "name": "Kibera Slum Educational Program", "amenity": "school", "operatorty": "ngo", "addrfull": "", "source": "", "building": "", "capacitype": "", "geometry": "POINT (36.7933321 -1.3110029)", "latitude": -1.3110029, "longitude": 36.7933321 }, "geometry": { "type": "Point", "coordinates": [ 36.7933321, -1.3110029 ] } },
{ "type": "Feature", "properties": { "osm_id": "712907767", "addrcity": "", "name": "Saviour King Education Centre", "amenity": "school", "operatorty": "cbo", "addrfull": "", "source": "", "building": "", "capacitype": "", "geometry": "POINT (36.790294 -1.314497)", "latitude": -1.314497, "longitude": 36.790294 }, "geometry": { "type": "Point", "coordinates": [ 36.790294, -1.314497 ] } },
{ "type": "Feature", "properties": { "osm_id": "713325179", "addrcity": "", "name": "Kaptich Primary School", "amenity": "school", "operatorty": "", "addrfull": "", "source": "", "building": "", "capacitype": "", "geometry": "POINT (35.7972671 0.3579048)", "latitude": 0.3579048, "longitude": 35.7972671 }, "geometry": { "type": "Point", "coordinates": [ 35.7972671, 0.3579048 ] } },
{ "type": "Feature", "properties": { "osm_id": "714721590", "addrcity": "", "name": "MTC College of Nutrition", "amenity": "college", "operatorty": "", "addrfull": "", "source": "", "building": "", "capacitype": "", "geometry": "POINT (36.7133726 -1.3512242)", "latitude": -1.3512242, "longitude": 36.7133726 }, "geometry": { "type": "Point", "coordinates": [ 36.7133726, -1.3512242 ] } },
{ "type": "Feature", "properties": { "osm_id": "720900823", "addrcity": "", "name": "Moi Educational Center", "amenity": "school", "operatorty": "", "addrfull": "", "source": "", "building": "", "capacitype": "", "geometry": "POINT (36.8190204 -1.313551)", "latitude": -1.313551, "longitude": 36.8190204 }, "geometry": { "type": "Point", "coordinates": [ 36.8190204, -1.313551 ] } },
{ "type": "Feature", "properties": { "osm_id": "734051761", "addrcity": "", "name": "Blue Hills Academy", "amenity": "school", "operatorty": "", "addrfull": "", "source": "", "building": "", "capacitype": "", "geometry": "POINT (37.0400901 -1.273245)", "latitude": -1.273245, "longitude": 37.0400901 }, "geometry": { "type": "Point", "coordinates": [ 37.0400901, -1.273245 ] } },
{ "type": "Feature", "properties": { "osm_id": "745351437", "addrcity": "", "name": "Karura Primary", "amenity": "school", "operatorty": "", "addrfull": "", "source": "", "building": "", "capacitype": "", "geometry": "POINT (36.840708 -1.2494198)", "latitude": -1.2494198, "longitude": 36.840708 }, "geometry": { "type": "Point", "coordinates": [ 36.840708, -1.2494198 ] } },
{ "type": "Feature", "properties": { "osm_id": "748777107", "addrcity": "", "name": "New Joy Centre", "amenity": "school", "operatorty": "cbo", "addrfull": "", "source": "", "building": "", "capacitype": "", "geometry": "POINT (36.7888659 -1.3106348)", "latitude": -1.3106348, "longitude": 36.7888659 }, "geometry": { "type": "Point", "coordinates": [ 36.7888659, -1.3106348 ] } },
{ "type": "Feature", "properties": { "osm_id": "748777109", "addrcity": "", "name": "Pracious Children Centre", "amenity": "school", "operatorty": "private", "addrfull": "", "source": "", "building": "", "capacitype": "", "geometry": "POINT (36.7880001 -1.311171)", "latitude": -1.311171, "longitude": 36.7880001 }, "geometry": { "type": "Point", "coordinates": [ 36.7880001, -1.311171 ] } },
{ "type": "Feature", "properties": { "osm_id": "748779286", "addrcity": "", "name": "Abib Kindergarten", "amenity": "school", "operatorty": "private", "addrfull": "", "source": "Map Kibera Trust", "building": "", "capacitype": "", "geometry": "POINT (36.7754013 -1.3149053)", "latitude": -1.3149053, "longitude": 36.7754013 }, "geometry": { "type": "Point", "coordinates": [ 36.7754013, -1.3149053 ] } },
{ "type": "Feature", "properties": { "osm_id": "748782275", "addrcity": "", "name": "Miracle And Victory Children Centre", "amenity": "school", "operatorty": "cbo", "addrfull": "", "source": "", "building": "", "capacitype": "", "geometry": "POINT (36.784261 -1.3130564)", "latitude": -1.3130564, "longitude": 36.784261 }, "geometry": { "type": "Point", "coordinates": [ 36.784261, -1.3130564 ] } },
{ "type": "Feature", "properties": { "osm_id": "748782276", "addrcity": "", "name": "Kibera Academy Secondary School", "amenity": "school", "operatorty": "private", "addrfull": "", "source": "", "building": "", "capacitype": "", "geometry": "POINT (36.7882314 -1.3110883)", "latitude": -1.3110883, "longitude": 36.7882314 }, "geometry": { "type": "Point", "coordinates": [ 36.7882314, -1.3110883 ] } },
{ "type": "Feature", "properties": { "osm_id": "748782277", "addrcity": "", "name": "Tumaini Juniour Academy", "amenity": "school", "operatorty": "religious", "addrfull": "", "source": "", "building": "", "capacitype": "", "geometry": "POINT (36.7847035 -1.3128282)", "latitude": -1.3128282, "longitude": 36.7847035 }, "geometry": { "type": "Point", "coordinates": [ 36.7847035, -1.3128282 ] } },
{ "type": "Feature", "properties": { "osm_id": "748803831", "addrcity": "", "name": "Goodnews Academy", "amenity": "school", "operatorty": "religious", "addrfull": "", "source": "", "building": "", "capacitype": "", "geometry": "POINT (36.7939243 -1.3095805)", "latitude": -1.3095805, "longitude": 36.7939243 }, "geometry": { "type": "Point", "coordinates": [ 36.7939243, -1.3095805 ] } },
{ "type": "Feature", "properties": { "osm_id": "748804441", "addrcity": "", "name": "Don Bosco", "amenity": "school", "operatorty": "religious", "addrfull": "", "source": "", "building": "", "capacitype": "", "geometry": "POINT (36.7940664 -1.3104588)", "latitude": -1.3104588, "longitude": 36.7940664 }, "geometry": { "type": "Point", "coordinates": [ 36.7940664, -1.3104588 ] } },
{ "type": "Feature", "properties": { "osm_id": "748804547", "addrcity": "", "name": "Mashimoni High School", "amenity": "school", "operatorty": "cbo", "addrfull": "", "source": "", "building": "", "capacitype": "", "geometry": "POINT (36.7909557 -1.3098164)", "latitude": -1.3098164, "longitude": 36.7909557 }, "geometry": { "type": "Point", "coordinates": [ 36.7909557, -1.3098164 ] } },
{ "type": "Feature", "properties": { "osm_id": "748804548", "addrcity": "", "name": "Mashimoni Primary School", "amenity": "school", "operatorty": "cbo", "addrfull": "", "source": "", "building": "", "capacitype": "", "geometry": "POINT (36.7917289 -1.3107928)", "latitude": -1.3107928, "longitude": 36.7917289 }, "geometry": { "type": "Point", "coordinates": [ 36.7917289, -1.3107928 ] } },
{ "type": "Feature", "properties": { "osm_id": "748804550", "addrcity": "", "name": "Jamhuri Assembly School (Closed)", "amenity": "school", "operatorty": "religious", "addrfull": "", "source": "", "building": "", "capacitype": "", "geometry": "POINT (36.7919443 -1.3096173)", "latitude": -1.3096173, "longitude": 36.7919443 }, "geometry": { "type": "Point", "coordinates": [ 36.7919443, -1.3096173 ] } },
{ "type": "Feature", "properties": { "osm_id": "748804555", "addrcity": "", "name": "Patmos School", "amenity": "school", "operatorty": "religious", "addrfull": "", "source": "", "building": "", "capacitype": "", "geometry": "POINT (36.7926827 -1.3109782)", "latitude": -1.3109782, "longitude": 36.7926827 }, "geometry": { "type": "Point", "coordinates": [ 36.7926827, -1.3109782 ] } },
{ "type": "Feature", "properties": { "osm_id": "748804556", "addrcity": "", "name": "Maranatha Laini Saba Academy", "amenity": "school", "operatorty": "religious", "addrfull": "", "source": "", "building": "", "capacitype": "", "geometry": "POINT (36.793513 -1.3129495)", "latitude": -1.3129495, "longitude": 36.793513 }, "geometry": { "type": "Point", "coordinates": [ 36.793513, -1.3129495 ] } },
{ "type": "Feature", "properties": { "osm_id": "748805433", "addrcity": "", "name": "Kibera Church of God Primary School", "amenity": "school", "operatorty": "religious", "addrfull": "", "source": "", "building": "", "capacitype": "", "geometry": "POINT (36.7949336 -1.3105546)", "latitude": -1.3105546, "longitude": 36.7949336 }, "geometry": { "type": "Point", "coordinates": [ 36.7949336, -1.3105546 ] } },
{ "type": "Feature", "properties": { "osm_id": "748826131", "addrcity": "", "name": "Kibera Free Methodist Academy", "amenity": "school", "operatorty": "religious", "addrfull": "", "source": "", "building": "", "capacitype": "", "geometry": "POINT (36.7946133 -1.3130841)", "latitude": -1.3130841, "longitude": 36.7946133 }, "geometry": { "type": "Point", "coordinates": [ 36.7946133, -1.3130841 ] } },
{ "type": "Feature", "properties": { "osm_id": "748826133", "addrcity": "", "name": "Magoso Primary School", "amenity": "school", "operatorty": "private", "addrfull": "", "source": "", "building": "", "capacitype": "", "geometry": "POINT (36.79323 -1.310448)", "latitude": -1.310448, "longitude": 36.79323 }, "geometry": { "type": "Point", "coordinates": [ 36.79323, -1.310448 ] } },
{ "type": "Feature", "properties": { "osm_id": "748828881", "addrcity": "", "name": "Kibera Community Academy", "amenity": "school", "operatorty": "religious", "addrfull": "", "source": "", "building": "", "capacitype": "", "geometry": "POINT (36.7961112 -1.314573)", "latitude": -1.314573, "longitude": 36.7961112 }, "geometry": { "type": "Point", "coordinates": [ 36.7961112, -1.314573 ] } },
{ "type": "Feature", "properties": { "osm_id": "748833033", "addrcity": "", "name": "Green House Pre-Unit School For Deaf", "amenity": "school", "operatorty": "ngo", "addrfull": "", "source": "Map Kibera Trust", "building": "", "capacitype": "", "geometry": "POINT (36.780417 -1.3128694)", "latitude": -1.3128694, "longitude": 36.780417 }, "geometry": { "type": "Point", "coordinates": [ 36.780417, -1.3128694 ] } },
{ "type": "Feature", "properties": { "osm_id": "748833035", "addrcity": "", "name": "Valley of Hope", "amenity": "school", "operatorty": "private", "addrfull": "", "source": "Map Kibera Trust", "building": "", "capacitype": "", "geometry": "POINT (36.7778436 -1.3143525)", "latitude": -1.3143525, "longitude": 36.7778436 }, "geometry": { "type": "Point", "coordinates": [ 36.7778436, -1.3143525 ] } },
{ "type": "Feature", "properties": { "osm_id": "748833039", "addrcity": "", "name": "Kibera Center For Evangelization", "amenity": "school", "operatorty": "religious", "addrfull": "", "source": "Map Kibera Trust", "building": "", "capacitype": "", "geometry": "POINT (36.779837 -1.3138193)", "latitude": -1.3138193, "longitude": 36.779837 }, "geometry": { "type": "Point", "coordinates": [ 36.779837, -1.3138193 ] } },
{ "type": "Feature", "properties": { "osm_id": "748833040", "addrcity": "", "name": "Childlife Olympic Vocational Centre", "amenity": "school", "operatorty": "cbo", "addrfull": "", "source": "", "building": "", "capacitype": "", "geometry": "POINT (36.7775676 -1.3147643)", "latitude": -1.3147643, "longitude": 36.7775676 }, "geometry": { "type": "Point", "coordinates": [ 36.7775676, -1.3147643 ] } },
{ "type": "Feature", "properties": { "osm_id": "748845930", "addrcity": "", "name": "Kibera New Hope Centre", "amenity": "school", "operatorty": "religious", "addrfull": "", "source": "", "building": "", "capacitype": "", "geometry": "POINT (36.7943387 -1.3184673)", "latitude": -1.3184673, "longitude": 36.7943387 }, "geometry": { "type": "Point", "coordinates": [ 36.7943387, -1.3184673 ] } },
{ "type": "Feature", "properties": { "osm_id": "748845940", "addrcity": "", "name": "ACK Emmanuel Primary School", "amenity": "school", "operatorty": "religious", "addrfull": "", "source": "", "building": "", "capacitype": "", "geometry": "POINT (36.7986811 -1.3185087)", "latitude": -1.3185087, "longitude": 36.7986811 }, "geometry": { "type": "Point", "coordinates": [ 36.7986811, -1.3185087 ] } },
{ "type": "Feature", "properties": { "osm_id": "748845943", "addrcity": "", "name": "Undugu School Kibera", "amenity": "school", "operatorty": "ngo", "addrfull": "", "source": "", "building": "", "capacitype": "", "geometry": "POINT (36.799904 -1.31746)", "latitude": -1.31746, "longitude": 36.799904 }, "geometry": { "type": "Point", "coordinates": [ 36.799904, -1.31746 ] } },
{ "type": "Feature", "properties": { "osm_id": "748858916", "addrcity": "", "name": "Shepherd Staff Junior Children Centre", "amenity": "school", "operatorty": "private", "addrfull": "", "source": "", "building": "", "capacitype": "", "geometry": "POINT (36.7988731 -1.3141444)", "latitude": -1.3141444, "longitude": 36.7988731 }, "geometry": { "type": "Point", "coordinates": [ 36.7988731, -1.3141444 ] } },
{ "type": "Feature", "properties": { "osm_id": "748858917", "addrcity": "", "name": "Ushirika Children Centre", "amenity": "school", "operatorty": "cbo", "addrfull": "", "source": "", "building": "", "capacitype": "", "geometry": "POINT (36.7960977 -1.3130214)", "latitude": -1.3130214, "longitude": 36.7960977 }, "geometry": { "type": "Point", "coordinates": [ 36.7960977, -1.3130214 ] } },
{ "type": "Feature", "properties": { "osm_id": "748863823", "addrcity": "", "name": "Siloam Primary Academy", "amenity": "school", "operatorty": "religious", "addrfull": "", "source": "", "building": "", "capacitype": "", "geometry": "POINT (36.7976981 -1.3171852)", "latitude": -1.3171852, "longitude": 36.7976981 }, "geometry": { "type": "Point", "coordinates": [ 36.7976981, -1.3171852 ] } },
{ "type": "Feature", "properties": { "osm_id": "748863824", "addrcity": "", "name": "St Bakita Nursery School", "amenity": "school", "operatorty": "religious", "addrfull": "", "source": "", "building": "", "capacitype": "", "geometry": "POINT (36.7984272 -1.3174306)", "latitude": -1.3174306, "longitude": 36.7984272 }, "geometry": { "type": "Point", "coordinates": [ 36.7984272, -1.3174306 ] } },
{ "type": "Feature", "properties": { "osm_id": "748863827", "addrcity": "", "name": "Wings Of Life Children's Centre", "amenity": "school", "operatorty": "cbo", "addrfull": "", "source": "", "building": "", "capacitype": "", "geometry": "POINT (36.7960534 -1.3172816)", "latitude": -1.3172816, "longitude": 36.7960534 }, "geometry": { "type": "Point", "coordinates": [ 36.7960534, -1.3172816 ] } },
{ "type": "Feature", "properties": { "osm_id": "748863829", "addrcity": "", "name": "PCEA Silanga High School", "amenity": "school", "operatorty": "religious", "addrfull": "", "source": "", "building": "", "capacitype": "", "geometry": "POINT (36.7973859 -1.3174537)", "latitude": -1.3174537, "longitude": 36.7973859 }, "geometry": { "type": "Point", "coordinates": [ 36.7973859, -1.3174537 ] } },
{ "type": "Feature", "properties": { "osm_id": "748863830", "addrcity": "", "name": "Jesus Winners Pre-School", "amenity": "school", "operatorty": "religious", "addrfull": "", "source": "", "building": "", "capacitype": "", "geometry": "POINT (36.7988523 -1.3153072)", "latitude": -1.3153072, "longitude": 36.7988523 }, "geometry": { "type": "Point", "coordinates": [ 36.7988523, -1.3153072 ] } },
{ "type": "Feature", "properties": { "osm_id": "748870479", "addrcity": "", "name": "Church On The Rock Academy", "amenity": "school", "operatorty": "religious", "addrfull": "", "source": "", "building": "", "capacitype": "", "geometry": "POINT (36.7773643 -1.317492)", "latitude": -1.317492, "longitude": 36.7773643 }, "geometry": { "type": "Point", "coordinates": [ 36.7773643, -1.317492 ] } },
{ "type": "Feature", "properties": { "osm_id": "748870482", "addrcity": "", "name": "St Stephen Educational Centre", "amenity": "school", "operatorty": "cbo", "addrfull": "", "source": "", "building": "", "capacitype": "", "geometry": "POINT (36.7774269 -1.3173959)", "latitude": -1.3173959, "longitude": 36.7774269 }, "geometry": { "type": "Point", "coordinates": [ 36.7774269, -1.3173959 ] } },
{ "type": "Feature", "properties": { "osm_id": "748912629", "addrcity": "", "name": "Gifted Hands Educational Centre", "amenity": "school", "operatorty": "cbo", "addrfull": "", "source": "", "building": "", "capacitype": "", "geometry": "POINT (36.7841006 -1.3137152)", "latitude": -1.3137152, "longitude": 36.7841006 }, "geometry": { "type": "Point", "coordinates": [ 36.7841006, -1.3137152 ] } },
{ "type": "Feature", "properties": { "osm_id": "748912656", "addrcity": "", "name": "Mount Sinai Educational Centre", "amenity": "school", "operatorty": "private", "addrfull": "", "source": "", "building": "", "capacitype": "", "geometry": "POINT (36.78229 -1.3135945)", "latitude": -1.3135945, "longitude": 36.78229 }, "geometry": { "type": "Point", "coordinates": [ 36.78229, -1.3135945 ] } },
{ "type": "Feature", "properties": { "osm_id": "748912704", "addrcity": "", "name": "St Joseph (Missionaries Of Charity)", "amenity": "school", "operatorty": "religious", "addrfull": "", "source": "", "building": "", "capacitype": "", "geometry": "POINT (36.7824366 -1.314799)", "latitude": -1.314799, "longitude": 36.7824366 }, "geometry": { "type": "Point", "coordinates": [ 36.7824366, -1.314799 ] } },
{ "type": "Feature", "properties": { "osm_id": "748912736", "addrcity": "", "name": "Seed School Kibera", "amenity": "school", "operatorty": "ngo", "addrfull": "", "source": "", "building": "yes", "capacitype": "", "geometry": "POINT (36.7818796 -1.316216)", "latitude": -1.316216, "longitude": 36.7818796 }, "geometry": { "type": "Point", "coordinates": [ 36.7818796, -1.316216 ] } },
{ "type": "Feature", "properties": { "osm_id": "748912871", "addrcity": "", "name": "St Poly Children Centre", "amenity": "school", "operatorty": "cbo", "addrfull": "", "source": "", "building": "", "capacitype": "", "geometry": "POINT (36.7864471 -1.3149674)", "latitude": -1.3149674, "longitude": 36.7864471 }, "geometry": { "type": "Point", "coordinates": [ 36.7864471, -1.3149674 ] } },
{ "type": "Feature", "properties": { "osm_id": "752219201", "addrcity": "", "name": "YMCA School", "amenity": "school", "operatorty": "ngo", "addrfull": "", "source": "", "building": "", "capacitype": "", "geometry": "POINT (36.7955438 -1.3108517)", "latitude": -1.3108517, "longitude": 36.7955438 }, "geometry": { "type": "Point", "coordinates": [ 36.7955438, -1.3108517 ] } },
{ "type": "Feature", "properties": { "osm_id": "752223310", "addrcity": "", "name": "Kibera Blessed Academy", "amenity": "school", "operatorty": "religious", "addrfull": "", "source": "", "building": "", "capacitype": "", "geometry": "POINT (36.8019153 -1.3155215)", "latitude": -1.3155215, "longitude": 36.8019153 }, "geometry": { "type": "Point", "coordinates": [ 36.8019153, -1.3155215 ] } },
{ "type": "Feature", "properties": { "osm_id": "752254027", "addrcity": "", "name": "P A G School", "amenity": "school", "operatorty": "religious", "addrfull": "", "source": "", "building": "", "capacitype": "", "geometry": "POINT (36.7946888 -1.3137477)", "latitude": -1.3137477, "longitude": 36.7946888 }, "geometry": { "type": "Point", "coordinates": [ 36.7946888, -1.3137477 ] } },
{ "type": "Feature", "properties": { "osm_id": "752254053", "addrcity": "", "name": "St Veronica Nursery School", "amenity": "school", "operatorty": "religious", "addrfull": "", "source": "", "building": "", "capacitype": "", "geometry": "POINT (36.7941986 -1.3143604)", "latitude": -1.3143604, "longitude": 36.7941986 }, "geometry": { "type": "Point", "coordinates": [ 36.7941986, -1.3143604 ] } },
{ "type": "Feature", "properties": { "osm_id": "752262462", "addrcity": "", "name": "Watu Moja Lee Academy", "amenity": "school", "operatorty": "cbo", "addrfull": "", "source": "", "building": "", "capacitype": "", "geometry": "POINT (36.7882089 -1.3125698)", "latitude": -1.3125698, "longitude": 36.7882089 }, "geometry": { "type": "Point", "coordinates": [ 36.7882089, -1.3125698 ] } },
{ "type": "Feature", "properties": { "osm_id": "752276386", "addrcity": "", "name": "Graebens Driving Shool", "amenity": "school", "operatorty": "private", "addrfull": "", "source": "", "building": "", "capacitype": "", "geometry": "POINT (36.782237 -1.3077569)", "latitude": -1.3077569, "longitude": 36.782237 }, "geometry": { "type": "Point", "coordinates": [ 36.782237, -1.3077569 ] } },
{ "type": "Feature", "properties": { "osm_id": "752276387", "addrcity": "", "name": "Three Bells Center", "amenity": "school", "operatorty": "private", "addrfull": "", "source": "Map Kibera Trust", "building": "", "capacitype": "", "geometry": "POINT (36.7787496 -1.3112565)", "latitude": -1.3112565, "longitude": 36.7787496 }, "geometry": { "type": "Point", "coordinates": [ 36.7787496, -1.3112565 ] } },
{ "type": "Feature", "properties": { "osm_id": "752317805", "addrcity": "", "name": "Optimist Educational Centre", "amenity": "school", "operatorty": "cbo", "addrfull": "", "source": "", "building": "", "capacitype": "", "geometry": "POINT (36.7848421 -1.3084519)", "latitude": -1.3084519, "longitude": 36.7848421 }, "geometry": { "type": "Point", "coordinates": [ 36.7848421, -1.3084519 ] } },
{ "type": "Feature", "properties": { "osm_id": "752317837", "addrcity": "", "name": "Baraka Junior School", "amenity": "school", "operatorty": "religious", "addrfull": "", "source": "", "building": "", "capacitype": "", "geometry": "POINT (36.7823716 -1.3070897)", "latitude": -1.3070897, "longitude": 36.7823716 }, "geometry": { "type": "Point", "coordinates": [ 36.7823716, -1.3070897 ] } },
{ "type": "Feature", "properties": { "osm_id": "752352033", "addrcity": "", "name": "Raila Educational Centre", "amenity": "school", "operatorty": "government", "addrfull": "", "source": "Map Kibera Trust", "building": "", "capacitype": "", "geometry": "POINT (36.7835454 -1.3125141)", "latitude": -1.3125141, "longitude": 36.7835454 }, "geometry": { "type": "Point", "coordinates": [ 36.7835454, -1.3125141 ] } },
{ "type": "Feature", "properties": { "osm_id": "752388466", "addrcity": "", "name": "St Batholomew", "amenity": "school", "operatorty": "private", "addrfull": "", "source": "", "building": "", "capacitype": "", "geometry": "POINT (36.7848106 -1.3082544)", "latitude": -1.3082544, "longitude": 36.7848106 }, "geometry": { "type": "Point", "coordinates": [ 36.7848106, -1.3082544 ] } },
{ "type": "Feature", "properties": { "osm_id": "752394857", "addrcity": "", "name": "Tenderlings School", "amenity": "school", "operatorty": "private", "addrfull": "", "source": "", "building": "", "capacitype": "", "geometry": "POINT (36.776478 -1.308649)", "latitude": -1.308649, "longitude": 36.776478 }, "geometry": { "type": "Point", "coordinates": [ 36.776478, -1.308649 ] } },
{ "type": "Feature", "properties": { "osm_id": "752394881", "addrcity": "", "name": "Ayany Primary School", "amenity": "school", "operatorty": "government", "addrfull": "", "source": "", "building": "", "capacitype": "", "geometry": "POINT (36.7764529 -1.3080088)", "latitude": -1.3080088, "longitude": 36.7764529 }, "geometry": { "type": "Point", "coordinates": [ 36.7764529, -1.3080088 ] } },
{ "type": "Feature", "properties": { "osm_id": "752394892", "addrcity": "", "name": "Kibera Primary School", "amenity": "school", "operatorty": "government", "addrfull": "", "source": "", "building": "", "capacitype": "", "geometry": "POINT (36.783868 -1.309877)", "latitude": -1.309877, "longitude": 36.783868 }, "geometry": { "type": "Point", "coordinates": [ 36.783868, -1.309877 ] } },
{ "type": "Feature", "properties": { "osm_id": "761956459", "addrcity": "", "name": "Joysprings Educational Centre", "amenity": "school", "operatorty": "religious", "addrfull": "", "source": "", "building": "", "capacitype": "", "geometry": "POINT (36.774904 -1.3121305)", "latitude": -1.3121305, "longitude": 36.774904 }, "geometry": { "type": "Point", "coordinates": [ 36.774904, -1.3121305 ] } },
{ "type": "Feature", "properties": { "osm_id": "761992157", "addrcity": "", "name": "St Collins Nursery School", "amenity": "school", "operatorty": "private", "addrfull": "", "source": "Map Kibera Trust", "building": "", "capacitype": "", "geometry": "POINT (36.7729016 -1.3090137)", "latitude": -1.3090137, "longitude": 36.7729016 }, "geometry": { "type": "Point", "coordinates": [ 36.7729016, -1.3090137 ] } },
{ "type": "Feature", "properties": { "osm_id": "767834398", "addrcity": "", "name": "City Primary School", "amenity": "school", "operatorty": "", "addrfull": "", "source": "", "building": "", "capacitype": "", "geometry": "POINT (36.8250539 -1.2729585)", "latitude": -1.2729585, "longitude": 36.8250539 }, "geometry": { "type": "Point", "coordinates": [ 36.8250539, -1.2729585 ] } },
{ "type": "Feature", "properties": { "osm_id": "775527189", "addrcity": "", "name": "Academia School Of Kibra", "amenity": "school", "operatorty": "", "addrfull": "", "source": "", "building": "", "capacitype": "", "geometry": "POINT (36.7868616 -1.3112369)", "latitude": -1.3112369, "longitude": 36.7868616 }, "geometry": { "type": "Point", "coordinates": [ 36.7868616, -1.3112369 ] } },
{ "type": "Feature", "properties": { "osm_id": "775535480", "addrcity": "", "name": "Stara Rescue Centre School", "amenity": "school", "operatorty": "ngo", "addrfull": "", "source": "", "building": "", "capacitype": "", "geometry": "POINT (36.7858678 -1.3118512)", "latitude": -1.3118512, "longitude": 36.7858678 }, "geometry": { "type": "Point", "coordinates": [ 36.7858678, -1.3118512 ] } },
{ "type": "Feature", "properties": { "osm_id": "802153098", "addrcity": "", "name": "Private School", "amenity": "school", "operatorty": "", "addrfull": "", "source": "", "building": "", "capacitype": "", "geometry": "POINT (34.5487427 0.8318107)", "latitude": 0.8318107, "longitude": 34.5487427 }, "geometry": { "type": "Point", "coordinates": [ 34.5487427, 0.8318107 ] } },
{ "type": "Feature", "properties": { "osm_id": "802153137", "addrcity": "", "name": "Kapkirwok C.O.C. Primary School", "amenity": "school", "operatorty": "", "addrfull": "", "source": "", "building": "", "capacitype": "", "geometry": "POINT (34.5916641 0.8307386)", "latitude": 0.8307386, "longitude": 34.5916641 }, "geometry": { "type": "Point", "coordinates": [ 34.5916641, 0.8307386 ] } },
{ "type": "Feature", "properties": { "osm_id": "802153156", "addrcity": "", "name": "R.C. Cheptoror Primary School", "amenity": "school", "operatorty": "", "addrfull": "", "source": "", "building": "", "capacitype": "", "geometry": "POINT (34.5908974 0.8365738)", "latitude": 0.8365738, "longitude": 34.5908974 }, "geometry": { "type": "Point", "coordinates": [ 34.5908974, 0.8365738 ] } },
{ "type": "Feature", "properties": { "osm_id": "802153359", "addrcity": "", "name": "Kiptiroko Primary School", "amenity": "school", "operatorty": "", "addrfull": "", "source": "", "building": "", "capacitype": "", "geometry": "POINT (34.7602852 0.8584689)", "latitude": 0.8584689, "longitude": 34.7602852 }, "geometry": { "type": "Point", "coordinates": [ 34.7602852, 0.8584689 ] } },
{ "type": "Feature", "properties": { "osm_id": "802153441", "addrcity": "", "name": "Milimani S.D.A. Primary School", "amenity": "school", "operatorty": "", "addrfull": "", "source": "", "building": "", "capacitype": "", "geometry": "POINT (34.7343887 0.8391375)", "latitude": 0.8391375, "longitude": 34.7343887 }, "geometry": { "type": "Point", "coordinates": [ 34.7343887, 0.8391375 ] } },
{ "type": "Feature", "properties": { "osm_id": "802153471", "addrcity": "", "name": "Kumurio Primary School", "amenity": "school", "operatorty": "", "addrfull": "", "source": "", "building": "", "capacitype": "", "geometry": "POINT (34.582001 0.8867091)", "latitude": 0.8867091, "longitude": 34.582001 }, "geometry": { "type": "Point", "coordinates": [ 34.582001, 0.8867091 ] } },
{ "type": "Feature", "properties": { "osm_id": "802153492", "addrcity": "", "name": "Chepsoikei K.E.T.C. Church (Primary School)", "amenity": "school", "operatorty": "", "addrfull": "", "source": "", "building": "", "capacitype": "", "geometry": "POINT (34.7385568 0.8935845)", "latitude": 0.8935845, "longitude": 34.7385568 }, "geometry": { "type": "Point", "coordinates": [ 34.7385568, 0.8935845 ] } },
{ "type": "Feature", "properties": { "osm_id": "802153580", "addrcity": "", "name": "Pentecostal Evangelistic Mission of Africa (P.E.M.A.) Chemetei Bondeni - Bondeni Trading Center (Nursery)", "amenity": "school", "operatorty": "", "addrfull": "", "source": "", "building": "", "capacitype": "", "geometry": "POINT (34.7729222 0.9007942)", "latitude": 0.9007942, "longitude": 34.7729222 }, "geometry": { "type": "Point", "coordinates": [ 34.7729222, 0.9007942 ] } },
{ "type": "Feature", "properties": { "osm_id": "802153627", "addrcity": "", "name": "Chebombai Primary School", "amenity": "school", "operatorty": "", "addrfull": "", "source": "", "building": "", "capacitype": "", "geometry": "POINT (34.7628693 0.9222648)", "latitude": 0.9222648, "longitude": 34.7628693 }, "geometry": { "type": "Point", "coordinates": [ 34.7628693, 0.9222648 ] } },
{ "type": "Feature", "properties": { "osm_id": "803881855", "addrcity": "", "name": "Walanga F.Y.M. Primary School", "amenity": "school", "operatorty": "", "addrfull": "", "source": "", "building": "", "capacitype": "", "geometry": "POINT (34.4212034 0.8369854)", "latitude": 0.8369854, "longitude": 34.4212034 }, "geometry": { "type": "Point", "coordinates": [ 34.4212034, 0.8369854 ] } },
{ "type": "Feature", "properties": { "osm_id": "803881863", "addrcity": "", "name": "Chepkube A.C.K. Primary School", "amenity": "school", "operatorty": "", "addrfull": "", "source": "", "building": "", "capacitype": "", "geometry": "POINT (34.4275636 0.8297052)", "latitude": 0.8297052, "longitude": 34.4275636 }, "geometry": { "type": "Point", "coordinates": [ 34.4275636, 0.8297052 ] } },
{ "type": "Feature", "properties": { "osm_id": "803881872", "addrcity": "", "name": "Kamosong S.A. Primary School", "amenity": "school", "operatorty": "", "addrfull": "", "source": "", "building": "", "capacitype": "", "geometry": "POINT (34.4346798 0.8358435)", "latitude": 0.8358435, "longitude": 34.4346798 }, "geometry": { "type": "Point", "coordinates": [ 34.4346798, 0.8358435 ] } },
{ "type": "Feature", "properties": { "osm_id": "803881877", "addrcity": "", "name": "The S.A. Chepkube Primary School", "amenity": "school", "operatorty": "", "addrfull": "", "source": "", "building": "", "capacitype": "", "geometry": "POINT (34.4674668 0.8505464)", "latitude": 0.8505464, "longitude": 34.4674668 }, "geometry": { "type": "Point", "coordinates": [ 34.4674668, 0.8505464 ] } },
{ "type": "Feature", "properties": { "osm_id": "803881888", "addrcity": "", "name": "Kapsesoi S.A. Primary School", "amenity": "school", "operatorty": "", "addrfull": "", "source": "", "building": "", "capacitype": "", "geometry": "POINT (34.4457627 0.8139922)", "latitude": 0.8139922, "longitude": 34.4457627 }, "geometry": { "type": "Point", "coordinates": [ 34.4457627, 0.8139922 ] } },
{ "type": "Feature", "properties": { "osm_id": "803881889", "addrcity": "", "name": "Kimaswa S.A. Primary School", "amenity": "school", "operatorty": "", "addrfull": "", "source": "", "building": "", "capacitype": "", "geometry": "POINT (34.4506485 0.8202033)", "latitude": 0.8202033, "longitude": 34.4506485 }, "geometry": { "type": "Point", "coordinates": [ 34.4506485, 0.8202033 ] } },
{ "type": "Feature", "properties": { "osm_id": "803881906", "addrcity": "", "name": "Kaprot D.E.B. Primary School", "amenity": "school", "operatorty": "", "addrfull": "", "source": "", "building": "", "capacitype": "", "geometry": "POINT (34.4447647 0.7928674)", "latitude": 0.7928674, "longitude": 34.4447647 }, "geometry": { "type": "Point", "coordinates": [ 34.4447647, 0.7928674 ] } },
{ "type": "Feature", "properties": { "osm_id": "803881910", "addrcity": "", "name": "Nalondo S.A. Primary School", "amenity": "school", "operatorty": "", "addrfull": "", "source": "", "building": "", "capacitype": "", "geometry": "POINT (34.422128 0.8166704)", "latitude": 0.8166704, "longitude": 34.422128 }, "geometry": { "type": "Point", "coordinates": [ 34.422128, 0.8166704 ] } },
{ "type": "Feature", "properties": { "osm_id": "803881916", "addrcity": "", "name": "Cheredyo S.D.A. Primary School", "amenity": "school", "operatorty": "", "addrfull": "", "source": "", "building": "", "capacitype": "", "geometry": "POINT (34.4640636 0.7907714)", "latitude": 0.7907714, "longitude": 34.4640636 }, "geometry": { "type": "Point", "coordinates": [ 34.4640636, 0.7907714 ] } },
{ "type": "Feature", "properties": { "osm_id": "803881924", "addrcity": "", "name": "Kaptanai Primary School", "amenity": "school", "operatorty": "", "addrfull": "", "source": "", "building": "", "capacitype": "", "geometry": "POINT (34.5386432 0.7855059)", "latitude": 0.7855059, "longitude": 34.5386432 }, "geometry": { "type": "Point", "coordinates": [ 34.5386432, 0.7855059 ] } },
{ "type": "Feature", "properties": { "osm_id": "803881932", "addrcity": "", "name": "Mulukhu F.Y.M. Primary School", "amenity": "school", "operatorty": "", "addrfull": "", "source": "", "building": "", "capacitype": "", "geometry": "POINT (34.5042105 0.7802779)", "latitude": 0.7802779, "longitude": 34.5042105 }, "geometry": { "type": "Point", "coordinates": [ 34.5042105, 0.7802779 ] } },
{ "type": "Feature", "properties": { "osm_id": "803881940", "addrcity": "", "name": "Kiptungururwo S.A. Nursery School", "amenity": "school", "operatorty": "", "addrfull": "", "source": "", "building": "", "capacitype": "", "geometry": "POINT (34.578398 0.7836203)", "latitude": 0.7836203, "longitude": 34.578398 }, "geometry": { "type": "Point", "coordinates": [ 34.578398, 0.7836203 ] } },
{ "type": "Feature", "properties": { "osm_id": "803881944", "addrcity": "", "name": "Friends Primary School Chesikaki", "amenity": "school", "operatorty": "", "addrfull": "", "source": "", "building": "", "capacitype": "", "geometry": "POINT (34.5124338 0.7895057)", "latitude": 0.7895057, "longitude": 34.5124338 }, "geometry": { "type": "Point", "coordinates": [ 34.5124338, 0.7895057 ] } },
{ "type": "Feature", "properties": { "osm_id": "803881957", "addrcity": "", "name": "Friends Primary School Kimabole", "amenity": "school", "operatorty": "", "addrfull": "", "source": "", "building": "", "capacitype": "", "geometry": "POINT (34.5154701 0.7813857)", "latitude": 0.7813857, "longitude": 34.5154701 }, "geometry": { "type": "Point", "coordinates": [ 34.5154701, 0.7813857 ] } },
{ "type": "Feature", "properties": { "osm_id": "803881963", "addrcity": "", "name": "Murwani E.C.D. Nursery School", "amenity": "school", "operatorty": "", "addrfull": "", "source": "", "building": "", "capacitype": "", "geometry": "POINT (34.5832953 0.7857285)", "latitude": 0.7857285, "longitude": 34.5832953 }, "geometry": { "type": "Point", "coordinates": [ 34.5832953, 0.7857285 ] } },
{ "type": "Feature", "properties": { "osm_id": "803881965", "addrcity": "", "name": "Bukonoi Primary School", "amenity": "school", "operatorty": "", "addrfull": "", "source": "", "building": "", "capacitype": "", "geometry": "POINT (34.474068 0.8098893)", "latitude": 0.8098893, "longitude": 34.474068 }, "geometry": { "type": "Point", "coordinates": [ 34.474068, 0.8098893 ] } },
{ "type": "Feature", "properties": { "osm_id": "803881966", "addrcity": "", "name": "Cheptais S.D.A. Primary School", "amenity": "school", "operatorty": "", "addrfull": "", "source": "", "building": "", "capacitype": "", "geometry": "POINT (34.4659096 0.8094161)", "latitude": 0.8094161, "longitude": 34.4659096 }, "geometry": { "type": "Point", "coordinates": [ 34.4659096, 0.8094161 ] } },
{ "type": "Feature", "properties": { "osm_id": "803881967", "addrcity": "", "name": "Peresten A.C.K. Primary School", "amenity": "school", "operatorty": "", "addrfull": "", "source": "", "building": "", "capacitype": "", "geometry": "POINT (34.4624872 0.8090739)", "latitude": 0.8090739, "longitude": 34.4624872 }, "geometry": { "type": "Point", "coordinates": [ 34.4624872, 0.8090739 ] } },
{ "type": "Feature", "properties": { "osm_id": "803881968", "addrcity": "", "name": "The Salvation Army Cheptais Corps Primary School", "amenity": "school", "operatorty": "", "addrfull": "", "source": "", "building": "", "capacitype": "", "geometry": "POINT (34.4537608 0.8086727)", "latitude": 0.8086727, "longitude": 34.4537608 }, "geometry": { "type": "Point", "coordinates": [ 34.4537608, 0.8086727 ] } },
{ "type": "Feature", "properties": { "osm_id": "803881971", "addrcity": "", "name": "Toroso S.A. Primary School", "amenity": "school", "operatorty": "", "addrfull": "", "source": "", "building": "", "capacitype": "", "geometry": "POINT (34.4893605 0.8070279)", "latitude": 0.8070279, "longitude": 34.4893605 }, "geometry": { "type": "Point", "coordinates": [ 34.4893605, 0.8070279 ] } },
{ "type": "Feature", "properties": { "osm_id": "803881976", "addrcity": "", "name": "Kapkoto A.C.K. Primary School", "amenity": "school", "operatorty": "", "addrfull": "", "source": "", "building": "", "capacitype": "", "geometry": "POINT (34.4841393 0.7929548)", "latitude": 0.7929548, "longitude": 34.4841393 }, "geometry": { "type": "Point", "coordinates": [ 34.4841393, 0.7929548 ] } },
{ "type": "Feature", "properties": { "osm_id": "803881979", "addrcity": "", "name": "Cheptoror Trading Center", "amenity": "school", "operatorty": "", "addrfull": "", "source": "", "building": "", "capacitype": "", "geometry": "POINT (34.4848905 0.7980743)", "latitude": 0.7980743, "longitude": 34.4848905 }, "geometry": { "type": "Point", "coordinates": [ 34.4848905, 0.7980743 ] } },
{ "type": "Feature", "properties": { "osm_id": "803881987", "addrcity": "", "name": "Kamarang Primary School", "amenity": "school", "operatorty": "", "addrfull": "", "source": "", "building": "", "capacitype": "", "geometry": "POINT (34.4890575 0.8265498)", "latitude": 0.8265498, "longitude": 34.4890575 }, "geometry": { "type": "Point", "coordinates": [ 34.4890575, 0.8265498 ] } },
{ "type": "Feature", "properties": { "osm_id": "803881988", "addrcity": "", "name": "Marigo S.D.A. Primary School", "amenity": "school", "operatorty": "", "addrfull": "", "source": "", "building": "", "capacitype": "", "geometry": "POINT (34.4781432 0.8188399)", "latitude": 0.8188399, "longitude": 34.4781432 }, "geometry": { "type": "Point", "coordinates": [ 34.4781432, 0.8188399 ] } },
{ "type": "Feature", "properties": { "osm_id": "803881989", "addrcity": "", "name": "Kipsis S.A. Primary School", "amenity": "school", "operatorty": "", "addrfull": "", "source": "", "building": "", "capacitype": "", "geometry": "POINT (34.468634 0.824198)", "latitude": 0.824198, "longitude": 34.468634 }, "geometry": { "type": "Point", "coordinates": [ 34.468634, 0.824198 ] } },
{ "type": "Feature", "properties": { "osm_id": "803881990", "addrcity": "", "name": "Masaba D.E.B. Primary School", "amenity": "school", "operatorty": "", "addrfull": "", "source": "", "building": "", "capacitype": "", "geometry": "POINT (34.532656 0.7913675)", "latitude": 0.7913675, "longitude": 34.532656 }, "geometry": { "type": "Point", "coordinates": [ 34.532656, 0.7913675 ] } },
{ "type": "Feature", "properties": { "osm_id": "803881991", "addrcity": "", "name": "Chesiywo S.A. Primary School", "amenity": "school", "operatorty": "", "addrfull": "", "source": "", "building": "", "capacitype": "", "geometry": "POINT (34.5347541 0.8115839)", "latitude": 0.8115839, "longitude": 34.5347541 }, "geometry": { "type": "Point", "coordinates": [ 34.5347541, 0.8115839 ] } },
{ "type": "Feature", "properties": { "osm_id": "803881992", "addrcity": "", "name": "The Salvation Army Mulatiwa Primary School", "amenity": "school", "operatorty": "", "addrfull": "", "source": "", "building": "", "capacitype": "", "geometry": "POINT (34.5050894 0.8028728)", "latitude": 0.8028728, "longitude": 34.5050894 }, "geometry": { "type": "Point", "coordinates": [ 34.5050894, 0.8028728 ] } },
{ "type": "Feature", "properties": { "osm_id": "803881993", "addrcity": "", "name": "Chesikak R.C. Primary School", "amenity": "school", "operatorty": "", "addrfull": "", "source": "", "building": "", "capacitype": "", "geometry": "POINT (34.5174212 0.8004201)", "latitude": 0.8004201, "longitude": 34.5174212 }, "geometry": { "type": "Point", "coordinates": [ 34.5174212, 0.8004201 ] } },
{ "type": "Feature", "properties": { "osm_id": "803881994", "addrcity": "", "name": "Chebinyiny Trading Center", "amenity": "school", "operatorty": "", "addrfull": "", "source": "", "building": "", "capacitype": "", "geometry": "POINT (34.5369501 0.8085639)", "latitude": 0.8085639, "longitude": 34.5369501 }, "geometry": { "type": "Point", "coordinates": [ 34.5369501, 0.8085639 ] } },
{ "type": "Feature", "properties": { "osm_id": "803881995", "addrcity": "", "name": "Kimama R.C. Primary School", "amenity": "school", "operatorty": "", "addrfull": "", "source": "", "building": "", "capacitype": "", "geometry": "POINT (34.5215946 0.8178146)", "latitude": 0.8178146, "longitude": 34.5215946 }, "geometry": { "type": "Point", "coordinates": [ 34.5215946, 0.8178146 ] } },
{ "type": "Feature", "properties": { "osm_id": "803881996", "addrcity": "", "name": "Kapkurongo Primary School", "amenity": "school", "operatorty": "", "addrfull": "", "source": "", "building": "", "capacitype": "", "geometry": "POINT (34.5336574 0.8252253)", "latitude": 0.8252253, "longitude": 34.5336574 }, "geometry": { "type": "Point", "coordinates": [ 34.5336574, 0.8252253 ] } },
{ "type": "Feature", "properties": { "osm_id": "803881997", "addrcity": "", "name": "Chemondi S.A. Primary School", "amenity": "school", "operatorty": "", "addrfull": "", "source": "", "building": "", "capacitype": "", "geometry": "POINT (34.5075679 0.8144723)", "latitude": 0.8144723, "longitude": 34.5075679 }, "geometry": { "type": "Point", "coordinates": [ 34.5075679, 0.8144723 ] } },
{ "type": "Feature", "properties": { "osm_id": "803881998", "addrcity": "", "name": "The R.C. Kaptoboi Primary School", "amenity": "school", "operatorty": "", "addrfull": "", "source": "", "building": "", "capacitype": "", "geometry": "POINT (34.5009306 0.8237946)", "latitude": 0.8237946, "longitude": 34.5009306 }, "geometry": { "type": "Point", "coordinates": [ 34.5009306, 0.8237946 ] } },
{ "type": "Feature", "properties": { "osm_id": "803881999", "addrcity": "", "name": "Cheptiya S.D.A. Primary School", "amenity": "school", "operatorty": "", "addrfull": "", "source": "", "building": "", "capacitype": "", "geometry": "POINT (34.4677536 0.8369208)", "latitude": 0.8369208, "longitude": 34.4677536 }, "geometry": { "type": "Point", "coordinates": [ 34.4677536, 0.8369208 ] } },
{ "type": "Feature", "properties": { "osm_id": "803882000", "addrcity": "", "name": "Chesiro S.A. Primary School", "amenity": "school", "operatorty": "", "addrfull": "", "source": "", "building": "", "capacitype": "", "geometry": "POINT (34.4641013 0.8486776)", "latitude": 0.8486776, "longitude": 34.4641013 }, "geometry": { "type": "Point", "coordinates": [ 34.4641013, 0.8486776 ] } },
{ "type": "Feature", "properties": { "osm_id": "803882001", "addrcity": "", "name": "Chemuses R.C. Primary School", "amenity": "school", "operatorty": "", "addrfull": "", "source": "", "building": "", "capacitype": "", "geometry": "POINT (34.4571381 0.8381673)", "latitude": 0.8381673, "longitude": 34.4571381 }, "geometry": { "type": "Point", "coordinates": [ 34.4571381, 0.8381673 ] } },
{ "type": "Feature", "properties": { "osm_id": "803882002", "addrcity": "", "name": "Chebwek S.A. Primary School", "amenity": "school", "operatorty": "", "addrfull": "", "source": "", "building": "", "capacitype": "", "geometry": "POINT (34.4610478 0.8541233)", "latitude": 0.8541233, "longitude": 34.4610478 }, "geometry": { "type": "Point", "coordinates": [ 34.4610478, 0.8541233 ] } },
{ "type": "Feature", "properties": { "osm_id": "803882003", "addrcity": "", "name": "Kuborom Trading Center", "amenity": "school", "operatorty": "", "addrfull": "", "source": "", "building": "", "capacitype": "", "geometry": "POINT (34.4580778 0.8572488)", "latitude": 0.8572488, "longitude": 34.4580778 }, "geometry": { "type": "Point", "coordinates": [ 34.4580778, 0.8572488 ] } },
{ "type": "Feature", "properties": { "osm_id": "803882004", "addrcity": "", "name": "Sesik Trading Center", "amenity": "school", "operatorty": "", "addrfull": "", "source": "", "building": "", "capacitype": "", "geometry": "POINT (34.5686893 0.797789)", "latitude": 0.797789, "longitude": 34.5686893 }, "geometry": { "type": "Point", "coordinates": [ 34.5686893, 0.797789 ] } },
{ "type": "Feature", "properties": { "osm_id": "803882005", "addrcity": "", "name": "Chelebei Primary School", "amenity": "school", "operatorty": "", "addrfull": "", "source": "", "building": "", "capacitype": "", "geometry": "POINT (34.5609318 0.8126171)", "latitude": 0.8126171, "longitude": 34.5609318 }, "geometry": { "type": "Point", "coordinates": [ 34.5609318, 0.8126171 ] } },
{ "type": "Feature", "properties": { "osm_id": "803882006", "addrcity": "", "name": "Chongeywo Primary School", "amenity": "school", "operatorty": "", "addrfull": "", "source": "", "building": "", "capacitype": "", "geometry": "POINT (34.5453348 0.8054186)", "latitude": 0.8054186, "longitude": 34.5453348 }, "geometry": { "type": "Point", "coordinates": [ 34.5453348, 0.8054186 ] } },
{ "type": "Feature", "properties": { "osm_id": "803882007", "addrcity": "", "name": "Kipsabula S.A. Primary School", "amenity": "school", "operatorty": "", "addrfull": "", "source": "", "building": "", "capacitype": "", "geometry": "POINT (34.5620197 0.8029279)", "latitude": 0.8029279, "longitude": 34.5620197 }, "geometry": { "type": "Point", "coordinates": [ 34.5620197, 0.8029279 ] } },
{ "type": "Feature", "properties": { "osm_id": "803882008", "addrcity": "", "name": "Masaek S.A. Boarding Primary School", "amenity": "school", "operatorty": "", "addrfull": "", "source": "", "building": "", "capacitype": "", "geometry": "POINT (34.5791938 0.8060985)", "latitude": 0.8060985, "longitude": 34.5791938 }, "geometry": { "type": "Point", "coordinates": [ 34.5791938, 0.8060985 ] } },
{ "type": "Feature", "properties": { "osm_id": "803882010", "addrcity": "", "name": "Rwanda S.A. Primary School", "amenity": "school", "operatorty": "", "addrfull": "", "source": "", "building": "", "capacitype": "", "geometry": "POINT (34.5438032 0.8237928)", "latitude": 0.8237928, "longitude": 34.5438032 }, "geometry": { "type": "Point", "coordinates": [ 34.5438032, 0.8237928 ] } },
{ "type": "Feature", "properties": { "osm_id": "803882011", "addrcity": "", "name": "Mateka Nursery School", "amenity": "school", "operatorty": "", "addrfull": "", "source": "", "building": "", "capacitype": "", "geometry": "POINT (34.5499222 0.813121)", "latitude": 0.813121, "longitude": 34.5499222 }, "geometry": { "type": "Point", "coordinates": [ 34.5499222, 0.813121 ] } },
{ "type": "Feature", "properties": { "osm_id": "803882012", "addrcity": "", "name": "Keewan-koy (Kewaanikooy) Primary School", "amenity": "school", "operatorty": "", "addrfull": "", "source": "", "building": "", "capacitype": "", "geometry": "POINT (34.5764395 0.8183115)", "latitude": 0.8183115, "longitude": 34.5764395 }, "geometry": { "type": "Point", "coordinates": [ 34.5764395, 0.8183115 ] } },
{ "type": "Feature", "properties": { "osm_id": "803882013", "addrcity": "", "name": "The Salvation Army Kebee Primary School", "amenity": "school", "operatorty": "", "addrfull": "", "source": "", "building": "", "capacitype": "", "geometry": "POINT (34.5603398 0.8301257)", "latitude": 0.8301257, "longitude": 34.5603398 }, "geometry": { "type": "Point", "coordinates": [ 34.5603398, 0.8301257 ] } },
{ "type": "Feature", "properties": { "osm_id": "803882014", "addrcity": "", "name": "Terem S.A. Primary School", "amenity": "school", "operatorty": "", "addrfull": "", "source": "", "building": "", "capacitype": "", "geometry": "POINT (34.593181 0.7940428)", "latitude": 0.7940428, "longitude": 34.593181 }, "geometry": { "type": "Point", "coordinates": [ 34.593181, 0.7940428 ] } },
{ "type": "Feature", "properties": { "osm_id": "803882015", "addrcity": "", "name": "Chebich R.C. Primary School", "amenity": "school", "operatorty": "", "addrfull": "", "source": "", "building": "", "capacitype": "", "geometry": "POINT (34.6026954 0.8088873)", "latitude": 0.8088873, "longitude": 34.6026954 }, "geometry": { "type": "Point", "coordinates": [ 34.6026954, 0.8088873 ] } },
{ "type": "Feature", "properties": { "osm_id": "803882016", "addrcity": "", "name": "Kapsambu Primary School", "amenity": "school", "operatorty": "", "addrfull": "", "source": "", "building": "", "capacitype": "", "geometry": "POINT (34.5931772 0.7940326)", "latitude": 0.7940326, "longitude": 34.5931772 }, "geometry": { "type": "Point", "coordinates": [ 34.5931772, 0.7940326 ] } },
{ "type": "Feature", "properties": { "osm_id": "803882017", "addrcity": "", "name": "Kapkateny A.C.K. Primary School", "amenity": "school", "operatorty": "", "addrfull": "", "source": "", "building": "", "capacitype": "", "geometry": "POINT (34.6218992 0.8007574)", "latitude": 0.8007574, "longitude": 34.6218992 }, "geometry": { "type": "Point", "coordinates": [ 34.6218992, 0.8007574 ] } },
{ "type": "Feature", "properties": { "osm_id": "803882019", "addrcity": "", "name": "Kapkege E.C.D. Nursery School", "amenity": "school", "operatorty": "", "addrfull": "", "source": "", "building": "", "capacitype": "", "geometry": "POINT (34.6108251 0.8172191)", "latitude": 0.8172191, "longitude": 34.6108251 }, "geometry": { "type": "Point", "coordinates": [ 34.6108251, 0.8172191 ] } },
{ "type": "Feature", "properties": { "osm_id": "803882020", "addrcity": "", "name": "Toywondet A.C.K. Primary School", "amenity": "school", "operatorty": "", "addrfull": "", "source": "", "building": "", "capacitype": "", "geometry": "POINT (34.6011357 0.8216643)", "latitude": 0.8216643, "longitude": 34.6011357 }, "geometry": { "type": "Point", "coordinates": [ 34.6011357, 0.8216643 ] } },
{ "type": "Feature", "properties": { "osm_id": "803882021", "addrcity": "", "name": "Kopsiro S.A. Primary School", "amenity": "school", "operatorty": "", "addrfull": "", "source": "", "building": "", "capacitype": "", "geometry": "POINT (34.591725 0.8232768)", "latitude": 0.8232768, "longitude": 34.591725 }, "geometry": { "type": "Point", "coordinates": [ 34.591725, 0.8232768 ] } },
{ "type": "Feature", "properties": { "osm_id": "803882022", "addrcity": "", "name": "Cheptonon R.C. Primary School", "amenity": "school", "operatorty": "", "addrfull": "", "source": "", "building": "", "capacitype": "", "geometry": "POINT (34.6181881 0.8207574)", "latitude": 0.8207574, "longitude": 34.6181881 }, "geometry": { "type": "Point", "coordinates": [ 34.6181881, 0.8207574 ] } },
{ "type": "Feature", "properties": { "osm_id": "803882023", "addrcity": "", "name": "Chepchabai (A.I.C.) Primary School", "amenity": "school", "operatorty": "", "addrfull": "", "source": "", "building": "", "capacitype": "", "geometry": "POINT (34.6112724 0.8323014)", "latitude": 0.8323014, "longitude": 34.6112724 }, "geometry": { "type": "Point", "coordinates": [ 34.6112724, 0.8323014 ] } },
{ "type": "Feature", "properties": { "osm_id": "803882024", "addrcity": "", "name": "Kaimugul R.C. Primary School", "amenity": "school", "operatorty": "", "addrfull": "", "source": "", "building": "", "capacitype": "", "geometry": "POINT (34.6143642 0.8552225)", "latitude": 0.8552225, "longitude": 34.6143642 }, "geometry": { "type": "Point", "coordinates": [ 34.6143642, 0.8552225 ] } },
{ "type": "Feature", "properties": { "osm_id": "803882025", "addrcity": "", "name": "Kapsogom A.C.K. Primary School", "amenity": "school", "operatorty": "", "addrfull": "", "source": "", "building": "", "capacitype": "", "geometry": "POINT (34.6052465 0.839432)", "latitude": 0.839432, "longitude": 34.6052465 }, "geometry": { "type": "Point", "coordinates": [ 34.6052465, 0.839432 ] } },
{ "type": "Feature", "properties": { "osm_id": "803882026", "addrcity": "", "name": "Cheptoror Primary School", "amenity": "school", "operatorty": "", "addrfull": "", "source": "", "building": "", "capacitype": "", "geometry": "POINT (34.5907231 0.8389176)", "latitude": 0.8389176, "longitude": 34.5907231 }, "geometry": { "type": "Point", "coordinates": [ 34.5907231, 0.8389176 ] } },
{ "type": "Feature", "properties": { "osm_id": "803882027", "addrcity": "", "name": "Kibumet Primary School", "amenity": "school", "operatorty": "", "addrfull": "", "source": "", "building": "", "capacitype": "", "geometry": "POINT (34.5949892 0.8549892)", "latitude": 0.8549892, "longitude": 34.5949892 }, "geometry": { "type": "Point", "coordinates": [ 34.5949892, 0.8549892 ] } },
{ "type": "Feature", "properties": { "osm_id": "803882029", "addrcity": "", "name": "Chepyuk Primary School", "amenity": "school", "operatorty": "", "addrfull": "", "source": "", "building": "", "capacitype": "", "geometry": "POINT (34.5895167 0.8767712)", "latitude": 0.8767712, "longitude": 34.5895167 }, "geometry": { "type": "Point", "coordinates": [ 34.5895167, 0.8767712 ] } },
{ "type": "Feature", "properties": { "osm_id": "803882030", "addrcity": "", "name": "Kabukwo Primary School", "amenity": "school", "operatorty": "", "addrfull": "", "source": "", "building": "", "capacitype": "", "geometry": "POINT (34.5733045 0.8375226)", "latitude": 0.8375226, "longitude": 34.5733045 }, "geometry": { "type": "Point", "coordinates": [ 34.5733045, 0.8375226 ] } },
{ "type": "Feature", "properties": { "osm_id": "803882031", "addrcity": "", "name": "Kubura Primary School", "amenity": "school", "operatorty": "", "addrfull": "", "source": "", "building": "", "capacitype": "", "geometry": "POINT (34.5579756 0.8696258)", "latitude": 0.8696258, "longitude": 34.5579756 }, "geometry": { "type": "Point", "coordinates": [ 34.5579756, 0.8696258 ] } },
{ "type": "Feature", "properties": { "osm_id": "803882032", "addrcity": "", "name": "Kapkisei A.I.C. Primary School", "amenity": "school", "operatorty": "", "addrfull": "", "source": "", "building": "", "capacitype": "", "geometry": "POINT (34.5666591 0.8610791)", "latitude": 0.8610791, "longitude": 34.5666591 }, "geometry": { "type": "Point", "coordinates": [ 34.5666591, 0.8610791 ] } },
{ "type": "Feature", "properties": { "osm_id": "803882033", "addrcity": "", "name": "Saosap-lel (Sosap-lel) Primary School", "amenity": "school", "operatorty": "", "addrfull": "", "source": "", "building": "", "capacitype": "", "geometry": "POINT (34.5744742 0.8752086)", "latitude": 0.8752086, "longitude": 34.5744742 }, "geometry": { "type": "Point", "coordinates": [ 34.5744742, 0.8752086 ] } },
{ "type": "Feature", "properties": { "osm_id": "803882034", "addrcity": "", "name": "Kapchebuk Primary School - BURNED", "amenity": "school", "operatorty": "", "addrfull": "", "source": "", "building": "", "capacitype": "", "geometry": "POINT (34.5481233 0.8460826)", "latitude": 0.8460826, "longitude": 34.5481233 }, "geometry": { "type": "Point", "coordinates": [ 34.5481233, 0.8460826 ] } },
{ "type": "Feature", "properties": { "osm_id": "803882035", "addrcity": "", "name": "Kaptola F.Y.M. Primary School", "amenity": "school", "operatorty": "", "addrfull": "", "source": "", "building": "", "capacitype": "", "geometry": "POINT (34.6912679 0.8068514)", "latitude": 0.8068514, "longitude": 34.6912679 }, "geometry": { "type": "Point", "coordinates": [ 34.6912679, 0.8068514 ] } },
{ "type": "Feature", "properties": { "osm_id": "803882036", "addrcity": "", "name": "Tendet (Tentet) R.C. Primary School", "amenity": "school", "operatorty": "", "addrfull": "", "source": "", "building": "", "capacitype": "", "geometry": "POINT (34.7056365 0.8167297)", "latitude": 0.8167297, "longitude": 34.7056365 }, "geometry": { "type": "Point", "coordinates": [ 34.7056365, 0.8167297 ] } },
{ "type": "Feature", "properties": { "osm_id": "803882037", "addrcity": "", "name": "Kamneru (Kamuneru) Primary School", "amenity": "school", "operatorty": "", "addrfull": "", "source": "", "building": "", "capacitype": "", "geometry": "POINT (34.6356071 0.8317804)", "latitude": 0.8317804, "longitude": 34.6356071 }, "geometry": { "type": "Point", "coordinates": [ 34.6356071, 0.8317804 ] } },
{ "type": "Feature", "properties": { "osm_id": "803882038", "addrcity": "", "name": "Makunga Primary School", "amenity": "school", "operatorty": "", "addrfull": "", "source": "", "building": "", "capacitype": "", "geometry": "POINT (34.6499731 0.8208614)", "latitude": 0.8208614, "longitude": 34.6499731 }, "geometry": { "type": "Point", "coordinates": [ 34.6499731, 0.8208614 ] } },
{ "type": "Feature", "properties": { "osm_id": "803882039", "addrcity": "", "name": "Choromis R.C. Primary School", "amenity": "school", "operatorty": "", "addrfull": "", "source": "", "building": "", "capacitype": "", "geometry": "POINT (34.6765014 0.8143783)", "latitude": 0.8143783, "longitude": 34.6765014 }, "geometry": { "type": "Point", "coordinates": [ 34.6765014, 0.8143783 ] } },
{ "type": "Feature", "properties": { "osm_id": "803882040", "addrcity": "", "name": "Sacho Primary School", "amenity": "school", "operatorty": "", "addrfull": "", "source": "", "building": "", "capacitype": "", "geometry": "POINT (34.637699 0.8119236)", "latitude": 0.8119236, "longitude": 34.637699 }, "geometry": { "type": "Point", "coordinates": [ 34.637699, 0.8119236 ] } },
{ "type": "Feature", "properties": { "osm_id": "803882041", "addrcity": "", "name": "Sango P.C.U. Primary School", "amenity": "school", "operatorty": "", "addrfull": "", "source": "", "building": "", "capacitype": "", "geometry": "POINT (34.6426306 0.800379)", "latitude": 0.800379, "longitude": 34.6426306 }, "geometry": { "type": "Point", "coordinates": [ 34.6426306, 0.800379 ] } },
{ "type": "Feature", "properties": { "osm_id": "803882042", "addrcity": "", "name": "Kipsoen S.D.A. Primary School", "amenity": "school", "operatorty": "", "addrfull": "", "source": "", "building": "", "capacitype": "", "geometry": "POINT (34.6383209 0.8227895)", "latitude": 0.8227895, "longitude": 34.6383209 }, "geometry": { "type": "Point", "coordinates": [ 34.6383209, 0.8227895 ] } },
{ "type": "Feature", "properties": { "osm_id": "803882046", "addrcity": "", "name": "", "amenity": "school", "operatorty": "", "addrfull": "", "source": "", "building": "", "capacitype": "", "geometry": "POINT (34.6673772 0.821954)", "latitude": 0.821954, "longitude": 34.6673772 }, "geometry": { "type": "Point", "coordinates": [ 34.6673772, 0.821954 ] } },
{ "type": "Feature", "properties": { "osm_id": "803882052", "addrcity": "", "name": "Sendera S.A. Primary School", "amenity": "school", "operatorty": "", "addrfull": "", "source": "", "building": "", "capacitype": "", "geometry": "POINT (34.6588099 0.8276425)", "latitude": 0.8276425, "longitude": 34.6588099 }, "geometry": { "type": "Point", "coordinates": [ 34.6588099, 0.8276425 ] } },
{ "type": "Feature", "properties": { "osm_id": "803882054", "addrcity": "", "name": "Kimobo F.Y.I. Primary School", "amenity": "school", "operatorty": "", "addrfull": "", "source": "", "building": "", "capacitype": "", "geometry": "POINT (34.6898676 0.8364654)", "latitude": 0.8364654, "longitude": 34.6898676 }, "geometry": { "type": "Point", "coordinates": [ 34.6898676, 0.8364654 ] } },
{ "type": "Feature", "properties": { "osm_id": "803882058", "addrcity": "", "name": "Nomorio (Namorio) R.C. Primary School", "amenity": "school", "operatorty": "", "addrfull": "", "source": "", "building": "", "capacitype": "", "geometry": "POINT (34.6717161 0.8393303)", "latitude": 0.8393303, "longitude": 34.6717161 }, "geometry": { "type": "Point", "coordinates": [ 34.6717161, 0.8393303 ] } },
{ "type": "Feature", "properties": { "osm_id": "803882059", "addrcity": "", "name": "Sambocho R.C.I. Primary School", "amenity": "school", "operatorty": "", "addrfull": "", "source": "", "building": "", "capacitype": "", "geometry": "POINT (34.6482685 0.8349929)", "latitude": 0.8349929, "longitude": 34.6482685 }, "geometry": { "type": "Point", "coordinates": [ 34.6482685, 0.8349929 ] } },
{ "type": "Feature", "properties": { "osm_id": "803882060", "addrcity": "", "name": "Kimkung Kipyeto A.I.C. Primary School", "amenity": "school", "operatorty": "", "addrfull": "", "source": "", "building": "", "capacitype": "", "geometry": "POINT (34.6692781 0.8543438)", "latitude": 0.8543438, "longitude": 34.6692781 }, "geometry": { "type": "Point", "coordinates": [ 34.6692781, 0.8543438 ] } },
{ "type": "Feature", "properties": { "osm_id": "803882061", "addrcity": "", "name": "Koshok R.C. Primary School", "amenity": "school", "operatorty": "", "addrfull": "", "source": "", "building": "", "capacitype": "", "geometry": "POINT (34.6592688 0.8417261)", "latitude": 0.8417261, "longitude": 34.6592688 }, "geometry": { "type": "Point", "coordinates": [ 34.6592688, 0.8417261 ] } },
{ "type": "Feature", "properties": { "osm_id": "803882062", "addrcity": "", "name": "Kaberwa R.C. Primary School", "amenity": "school", "operatorty": "", "addrfull": "", "source": "", "building": "", "capacitype": "", "geometry": "POINT (34.6913687 0.8595416)", "latitude": 0.8595416, "longitude": 34.6913687 }, "geometry": { "type": "Point", "coordinates": [ 34.6913687, 0.8595416 ] } },
{ "type": "Feature", "properties": { "osm_id": "803882063", "addrcity": "", "name": "Kipkama F.Y.M. Primary School", "amenity": "school", "operatorty": "", "addrfull": "", "source": "", "building": "", "capacitype": "", "geometry": "POINT (34.6805961 0.849741)", "latitude": 0.849741, "longitude": 34.6805961 }, "geometry": { "type": "Point", "coordinates": [ 34.6805961, 0.849741 ] } },
{ "type": "Feature", "properties": { "osm_id": "803882064", "addrcity": "", "name": "Kapsokwony Primary School", "amenity": "school", "operatorty": "", "addrfull": "", "source": "", "building": "", "capacitype": "", "geometry": "POINT (34.7147217 0.8430746)", "latitude": 0.8430746, "longitude": 34.7147217 }, "geometry": { "type": "Point", "coordinates": [ 34.7147217, 0.8430746 ] } },
{ "type": "Feature", "properties": { "osm_id": "803882065", "addrcity": "", "name": "Bugaa Primary School", "amenity": "school", "operatorty": "", "addrfull": "", "source": "", "building": "", "capacitype": "", "geometry": "POINT (34.7068534 0.8592884)", "latitude": 0.8592884, "longitude": 34.7068534 }, "geometry": { "type": "Point", "coordinates": [ 34.7068534, 0.8592884 ] } },
{ "type": "Feature", "properties": { "osm_id": "803882066", "addrcity": "", "name": "Kibuk R.C. Primary School", "amenity": "school", "operatorty": "", "addrfull": "", "source": "", "building": "", "capacitype": "", "geometry": "POINT (34.6992201 0.8440357)", "latitude": 0.8440357, "longitude": 34.6992201 }, "geometry": { "type": "Point", "coordinates": [ 34.6992201, 0.8440357 ] } },
{ "type": "Feature", "properties": { "osm_id": "803882067", "addrcity": "", "name": "Kimkung S.D.A. Primary School", "amenity": "school", "operatorty": "", "addrfull": "", "source": "", "building": "", "capacitype": "", "geometry": "POINT (34.7253585 0.8297634)", "latitude": 0.8297634, "longitude": 34.7253585 }, "geometry": { "type": "Point", "coordinates": [ 34.7253585, 0.8297634 ] } },
{ "type": "Feature", "properties": { "osm_id": "803882068", "addrcity": "", "name": "Chemweisus S.A. Primary School", "amenity": "school", "operatorty": "", "addrfull": "", "source": "", "building": "", "capacitype": "", "geometry": "POINT (34.7199126 0.8549444)", "latitude": 0.8549444, "longitude": 34.7199126 }, "geometry": { "type": "Point", "coordinates": [ 34.7199126, 0.8549444 ] } },
{ "type": "Feature", "properties": { "osm_id": "803882069", "addrcity": "", "name": "Chemoremwo (Chemworemo) Primary School", "amenity": "school", "operatorty": "", "addrfull": "", "source": "", "building": "", "capacitype": "", "geometry": "POINT (34.7304312 0.8698843)", "latitude": 0.8698843, "longitude": 34.7304312 }, "geometry": { "type": "Point", "coordinates": [ 34.7304312, 0.8698843 ] } },
{ "type": "Feature", "properties": { "osm_id": "803882070", "addrcity": "", "name": "Chemses R.C. Primary School", "amenity": "school", "operatorty": "", "addrfull": "", "source": "", "building": "", "capacitype": "", "geometry": "POINT (34.7319255 0.8523446)", "latitude": 0.8523446, "longitude": 34.7319255 }, "geometry": { "type": "Point", "coordinates": [ 34.7319255, 0.8523446 ] } },
{ "type": "Feature", "properties": { "osm_id": "803882072", "addrcity": "", "name": "Kiptiroko Village Polytechnic", "amenity": "school", "operatorty": "", "addrfull": "", "source": "", "building": "", "capacitype": "", "geometry": "POINT (34.7608624 0.8586256)", "latitude": 0.8586256, "longitude": 34.7608624 }, "geometry": { "type": "Point", "coordinates": [ 34.7608624, 0.8586256 ] } },
{ "type": "Feature", "properties": { "osm_id": "803882073", "addrcity": "", "name": "Chemoge Secondary School", "amenity": "school", "operatorty": "", "addrfull": "", "source": "", "building": "", "capacitype": "", "geometry": "POINT (34.7611623 0.8588946)", "latitude": 0.8588946, "longitude": 34.7611623 }, "geometry": { "type": "Point", "coordinates": [ 34.7611623, 0.8588946 ] } },
{ "type": "Feature", "properties": { "osm_id": "803882074", "addrcity": "", "name": "Chemoge Primary School", "amenity": "school", "operatorty": "", "addrfull": "", "source": "", "building": "", "capacitype": "", "geometry": "POINT (34.7508859 0.857585)", "latitude": 0.857585, "longitude": 34.7508859 }, "geometry": { "type": "Point", "coordinates": [ 34.7508859, 0.857585 ] } },
{ "type": "Feature", "properties": { "osm_id": "803882076", "addrcity": "", "name": "Kamenjo A.C.K. Primary School", "amenity": "school", "operatorty": "", "addrfull": "", "source": "", "building": "", "capacitype": "", "geometry": "POINT (34.7734376 0.8506538)", "latitude": 0.8506538, "longitude": 34.7734376 }, "geometry": { "type": "Point", "coordinates": [ 34.7734376, 0.8506538 ] } },
{ "type": "Feature", "properties": { "osm_id": "803882077", "addrcity": "", "name": "Kipchiria A.C.K. Primary School", "amenity": "school", "operatorty": "", "addrfull": "", "source": "", "building": "", "capacitype": "", "geometry": "POINT (34.747118 0.8390202)", "latitude": 0.8390202, "longitude": 34.747118 }, "geometry": { "type": "Point", "coordinates": [ 34.747118, 0.8390202 ] } },
{ "type": "Feature", "properties": { "osm_id": "803882078", "addrcity": "", "name": "A.K.C. Kaborom Primary School", "amenity": "school", "operatorty": "", "addrfull": "", "source": "", "building": "", "capacitype": "", "geometry": "POINT (34.7869019 0.8654404)", "latitude": 0.8654404, "longitude": 34.7869019 }, "geometry": { "type": "Point", "coordinates": [ 34.7869019, 0.8654404 ] } },